[{"id":14668,"name":"PARK DAIKANYAMA","prefecture":"青森","lat":41.2962311,"lng":141.2103149,"address":"青森県むつ市小川町2丁目13-43","review_count":37,"rating":4.4,"open_year":null,"nap_url":"https://www.nap-camp.com/aomori/14668","gmaps_url":"https://www.google.com/maps/search/?api=1&query=41.2962311,141.2103149"},{"id":11712,"name":"小川原湖畔キャンプ場・コテージ","prefecture":"青森","lat":40.7344,"lng":141.3587,"address":"青森県三沢市三沢字淋代平116-2962小川湖畔管理棟","review_count":12,"rating":4.2,"open_year":null,"nap_url":"https://www.nap-camp.com/aomori/11712","gmaps_url":"https://www.google.com/maps/search/?api=1&query=40.7344,141.3587"},{"id":10024,"name":"小川原湖ふれあい村","prefecture":"青森","lat":40.7240814,"lng":141.2861068,"address":"青森県上北郡東北町大字大浦字沼端地内","review_count":6,"rating":4.5,"open_year":null,"nap_url":"https://www.nap-camp.com/aomori/10024","gmaps_url":"https://www.google.com/maps/search/?api=1&query=40.7240814,141.2861068"},{"id":11713,"name":"十和田市営宇樽部キャンプ場","prefecture":"青森","lat":40.44741179492514,"lng":140.92749378744122,"address":"青森県十和田市大字奥瀬字宇樽部国有林十和田市営宇樽部キャンプ場","review_count":145,"rating":4.4,"open_year":null,"nap_url":"https://www.nap-camp.com/aomori/11713","gmaps_url":"https://www.google.com/maps/search/?api=1&query=40.44741179492514,140.92749378744122"},{"id":13624,"name":"三沢オートキャンプ場","prefecture":"青森","lat":40.7417025,"lng":141.3617526,"address":"青森県三沢市字早稲田261-4三沢オートキャンプ場管理棟","review_count":8,"rating":4.4,"open_year":null,"nap_url":"https://www.nap-camp.com/aomori/13624","gmaps_url":"https://www.google.com/maps/search/?api=1&query=40.7417025,141.3617526"},{"id":11698,"name":"大間崎テントサイト","prefecture":"青森","lat":41.5459601,"lng":140.912273,"address":"青森県下北郡大間町大字大間字大間平17-1","review_count":4,"rating":4.6,"open_year":null,"nap_url":"https://www.nap-camp.com/aomori/11698","gmaps_url":"https://www.google.com/maps/search/?api=1&query=41.5459601,140.912273"},{"id":13642,"name":"名川チェリリン村","prefecture":"青森","lat":40.39372288771402,"lng":141.32897547836532,"address":"青森県三戸郡南部町上名久井大渋民山23-2","review_count":12,"rating":4.4,"open_year":null,"nap_url":"https://www.nap-camp.com/aomori/13642","gmaps_url":"https://www.google.com/maps/search/?api=1&query=40.39372288771402,141.32897547836532"},{"id":11734,"name":"モヤヒルズ オートキャンプ場","prefecture":"青森","lat":40.7378903,"lng":140.7932503,"address":"青森県青森市雲谷梨野木63","review_count":6,"rating":4.4,"open_year":null,"nap_url":"https://www.nap-camp.com/aomori/11734","gmaps_url":"https://www.google.com/maps/search/?api=1&query=40.7378903,140.7932503"},{"id":11736,"name":"酸ヶ湯キャンプ場","prefecture":"青森","lat":40.647806633430505,"lng":140.85097074508667,"address":"青森県青森市荒川南荒川山","review_count":6,"rating":4.4,"open_year":null,"nap_url":"https://www.nap-camp.com/aomori/11736","gmaps_url":"https://www.google.com/maps/search/?api=1&query=40.647806633430505,140.85097074508667"},{"id":11691,"name":"つがる地球村","prefecture":"青森","lat":40.7676343,"lng":140.3365829,"address":"青森県つがる市森田町床舞藤山244","review_count":10,"rating":4.3,"open_year":null,"nap_url":"https://www.nap-camp.com/aomori/11691","gmaps_url":"https://www.google.com/maps/search/?api=1&query=40.7676343,140.3365829"},{"id":11745,"name":"種差キャンプ場","prefecture":"青森","lat":40.510495054849144,"lng":141.6095071,"address":"青森県八戸市鮫町字棚久保14-117","review_count":6,"rating":4.2,"open_year":null,"nap_url":"https://www.nap-camp.com/aomori/11745","gmaps_url":"https://www.google.com/maps/search/?api=1&query=40.510495054849144,141.6095071"},{"id":11733,"name":"鰺ヶ沢キャンピングパーク","prefecture":"青森","lat":40.704443,"lng":140.270289,"address":"青森県西津軽郡鰺ヶ沢町大字長平町字甲音羽山65","review_count":5,"rating":4.2,"open_year":null,"nap_url":"https://www.nap-camp.com/aomori/11733","gmaps_url":"https://www.google.com/maps/search/?api=1&query=40.704443,140.270289"},{"id":11710,"name":"間木ノ平グリーンパーク","prefecture":"青森","lat":40.42944018431205,"lng":141.0689644788208,"address":"青森県三戸郡新郷村大字戸来字雨池11-2","review_count":45,"rating":4.2,"open_year":null,"nap_url":"https://www.nap-camp.com/aomori/11710","gmaps_url":"https://www.google.com/maps/search/?api=1&query=40.42944018431205,141.0689644788208"},{"id":11716,"name":"下田公園キャンプ場","prefecture":"青森","lat":40.6141385,"lng":141.4019542,"address":"青森県上北郡おいらせ町山崎2582-1","review_count":3,"rating":4.2,"open_year":null,"nap_url":"https://www.nap-camp.com/aomori/11716","gmaps_url":"https://www.google.com/maps/search/?api=1&query=40.6141385,141.4019542"},{"id":11706,"name":"弥生いこいの広場オートキャンプ場","prefecture":"青森","lat":40.6525097,"lng":140.3568096,"address":"青森県弘前市百沢字東岩木山2480-1","review_count":10,"rating":4.1,"open_year":null,"nap_url":"https://www.nap-camp.com/aomori/11706","gmaps_url":"https://www.google.com/maps/search/?api=1&query=40.6525097,140.3568096"},{"id":11744,"name":"あじゃらの森キャンプ場","prefecture":"青森","lat":40.5073061,"lng":140.5837048,"address":"青森県南津軽郡大鰐町大鰐萢頭28-74","review_count":3,"rating":4.1,"open_year":null,"nap_url":"https://www.nap-camp.com/aomori/11744","gmaps_url":"https://www.google.com/maps/search/?api=1&query=40.5073061,140.5837048"},{"id":11715,"name":"カワヨグリーン牧場","prefecture":"青森","lat":40.6266727,"lng":141.3774726,"address":"青森県上北郡おいらせ町向山3331","review_count":2,"rating":4.0,"open_year":null,"nap_url":"https://www.nap-camp.com/aomori/11715","gmaps_url":"https://www.google.com/maps/search/?api=1&query=40.6266727,141.3774726"},{"id":11743,"name":"夜越山オートキャンプ場","prefecture":"青森","lat":40.9216798,"lng":140.987762,"address":"青森県東津軽郡平内町浜子堀替36-1","review_count":4,"rating":4.0,"open_year":null,"nap_url":"https://www.nap-camp.com/aomori/11743","gmaps_url":"https://www.google.com/maps/search/?api=1&query=40.9216798,140.987762"},{"id":11741,"name":"おだいばオートビレッジ","prefecture":"青森","lat":41.1720651,"lng":140.6421252,"address":"青森県東津軽郡外ヶ浜町字平舘田の沢","review_count":2,"rating":3.9,"open_year":null,"nap_url":"https://www.nap-camp.com/aomori/11741","gmaps_url":"https://www.google.com/maps/search/?api=1&query=41.1720651,140.6421252"},{"id":11692,"name":"国設薬研野営場","prefecture":"青森","lat":41.4056644,"lng":141.1635246,"address":"青森県むつ市大畑町葉色山国有林1164林班イ小班","review_count":2,"rating":3.8,"open_year":null,"nap_url":"https://www.nap-camp.com/aomori/11692","gmaps_url":"https://www.google.com/maps/search/?api=1&query=41.4056644,141.1635246"},{"id":11696,"name":"佐井村がんかけ公園","prefecture":"青森","lat":41.4162042,"lng":140.8388935,"address":"青森県下北郡佐井村佐井矢越75-48","review_count":2,"rating":3.8,"open_year":null,"nap_url":"https://www.nap-camp.com/aomori/11696","gmaps_url":"https://www.google.com/maps/search/?api=1&query=41.4162042,140.8388935"},{"id":13621,"name":"【閉鎖】久吉温泉自然休暇村 たけのこの里","prefecture":"青森","lat":40.4362342,"lng":140.7150102,"address":"青森県平川市 碇ヶ関東碇ヶ関山1-128","review_count":2,"rating":3.8,"open_year":null,"nap_url":"https://www.nap-camp.com/aomori/13621","gmaps_url":"https://www.google.com/maps/search/?api=1&query=40.4362342,140.7150102"},{"id":11704,"name":"岩木青少年スポーツセンター","prefecture":"青森","lat":40.6265822,"lng":140.2648348,"address":"青森県弘前市常盤野湯段萢1-2","review_count":7,"rating":3.8,"open_year":null,"nap_url":"https://www.nap-camp.com/aomori/11704","gmaps_url":"https://www.google.com/maps/search/?api=1&query=40.6265822,140.2648348"},{"id":11695,"name":"むつ矢立温泉キャンプ場","prefecture":"青森","lat":41.3050331,"lng":141.1724342,"address":"青森県むつ市田名部矢立山49-1","review_count":2,"rating":3.8,"open_year":null,"nap_url":"https://www.nap-camp.com/aomori/11695","gmaps_url":"https://www.google.com/maps/search/?api=1&query=41.3050331,141.1724342"},{"id":11719,"name":"七戸町森林公園","prefecture":"青森","lat":40.7893423,"lng":141.0737897,"address":"青森県上北郡七戸町字志茂川原224","review_count":2,"rating":3.8,"open_year":null,"nap_url":"https://www.nap-camp.com/aomori/11719","gmaps_url":"https://www.google.com/maps/search/?api=1&query=40.7893423,141.0737897"},{"id":11722,"name":"レークハウス・小川原湖キャンプ場","prefecture":"青森","lat":40.7303712,"lng":141.278361,"address":"青森県上北郡東北町上野南谷地273-1","review_count":2,"rating":3.6,"open_year":null,"nap_url":"https://www.nap-camp.com/aomori/11722","gmaps_url":"https://www.google.com/maps/search/?api=1&query=40.7303712,141.278361"},{"id":11735,"name":"月見野森林公園","prefecture":"青森","lat":40.7540588,"lng":140.8142861,"address":"青森県青森市駒込深沢","review_count":2,"rating":3.5,"open_year":null,"nap_url":"https://www.nap-camp.com/aomori/11735","gmaps_url":"https://www.google.com/maps/search/?api=1&query=40.7540588,140.8142861"},{"id":11705,"name":"桜林公園","prefecture":"青森","lat":40.6746659,"lng":140.3747647,"address":"青森県弘前市百沢東岩木山","review_count":3,"rating":3.2,"open_year":null,"nap_url":"https://www.nap-camp.com/aomori/11705","gmaps_url":"https://www.google.com/maps/search/?api=1&query=40.6746659,140.3747647"},{"id":11730,"name":"行合崎キャンプ場","prefecture":"青森","lat":40.6634851,"lng":139.9427371,"address":"青森県西津軽郡深浦町大字広戸","review_count":3,"rating":3.0,"open_year":null,"nap_url":"https://www.nap-camp.com/aomori/11730","gmaps_url":"https://www.google.com/maps/search/?api=1&query=40.6634851,139.9427371"},{"id":11739,"name":"龍飛崎シーサイドパーク","prefecture":"青森","lat":41.257159,"lng":140.3442827,"address":"青森県東津軽郡外ヶ浜町三厩竜浜54","review_count":2,"rating":2.8,"open_year":null,"nap_url":"https://www.nap-camp.com/aomori/11739","gmaps_url":"https://www.google.com/maps/search/?api=1&query=41.257159,140.3442827"},{"id":11738,"name":"アクアグリーンビレッジANMON","prefecture":"青森","lat":40.5217246,"lng":140.178402,"address":"青森県中津軽郡西目屋村川原平大川添417","review_count":2,"rating":2.4,"open_year":null,"nap_url":"https://www.nap-camp.com/aomori/11738","gmaps_url":"https://www.google.com/maps/search/?api=1&query=40.5217246,140.178402"},{"id":10023,"name":"【R1/9現在閉鎖中】眺海の森林ウッドパーク","prefecture":"青森","lat":41.170859,"lng":140.465223,"address":"青森県今別町大字浜名字今別山国有林107","review_count":0,"rating":0.0,"open_year":null,"nap_url":"https://www.nap-camp.com/aomori/10023","gmaps_url":"https://www.google.com/maps/search/?api=1&query=41.170859,140.465223"},{"id":10486,"name":"椿山キャンプ場","prefecture":"青森","lat":41.0003104,"lng":140.9115676,"address":"青森県東津軽郡平内町東田沢横峰","review_count":1,"rating":0.0,"open_year":null,"nap_url":"https://www.nap-camp.com/aomori/10486","gmaps_url":"https://www.google.com/maps/search/?api=1&query=41.0003104,140.9115676"},{"id":11693,"name":"むつ市かまふせビレッジ","prefecture":"青森","lat":41.2624786,"lng":141.1379193,"address":"青森県むつ市大湊大川守44-5","review_count":0,"rating":0.0,"open_year":null,"nap_url":"https://www.nap-camp.com/aomori/11693","gmaps_url":"https://www.google.com/maps/search/?api=1&query=41.2624786,141.1379193"},{"id":11694,"name":"早掛レイクサイドヒルキャンプ場","prefecture":"青森","lat":41.3169528,"lng":141.2169442,"address":"青森県むつ市田名部小平舘ノ内尻釜","review_count":1,"rating":0.0,"open_year":null,"nap_url":"https://www.nap-camp.com/aomori/11694","gmaps_url":"https://www.google.com/maps/search/?api=1&query=41.3169528,141.2169442"},{"id":11697,"name":"海峡の杜願掛キャンプ場","prefecture":"青森","lat":41.4161679,"lng":140.83884,"address":"青森県下北郡佐井村矢越地内","review_count":0,"rating":0.0,"open_year":null,"nap_url":"https://www.nap-camp.com/aomori/11697","gmaps_url":"https://www.google.com/maps/search/?api=1&query=41.4161679,140.838840"},{"id":11699,"name":"芦野公園オートキャンプ場","prefecture":"青森","lat":40.9208314,"lng":140.4497876,"address":"青森県五所川原市金木町川倉七夕野","review_count":1,"rating":0.0,"open_year":null,"nap_url":"https://www.nap-camp.com/aomori/11699","gmaps_url":"https://www.google.com/maps/search/?api=1&query=40.9208314,140.4497876"},{"id":11700,"name":"中の島ブリッジパーク","prefecture":"青森","lat":41.0473874,"lng":140.33341,"address":"青森県五所川原市十三土佐1-298","review_count":1,"rating":0.0,"open_year":null,"nap_url":"https://www.nap-camp.com/aomori/11700","gmaps_url":"https://www.google.com/maps/search/?api=1&query=41.0473874,140.333410"},{"id":11701,"name":"脇元海辺ふれあいゾーン","prefecture":"青森","lat":41.0972698,"lng":140.312772,"address":"青森県五所川原市脇元野脇地内","review_count":0,"rating":0.0,"open_year":null,"nap_url":"https://www.nap-camp.com/aomori/11701","gmaps_url":"https://www.google.com/maps/search/?api=1&query=41.0972698,140.312772"},{"id":11702,"name":"高長根レクリエーションの森","prefecture":"青森","lat":40.6667006,"lng":140.390028,"address":"青森県弘前市高杉神原282","review_count":0,"rating":0.0,"open_year":null,"nap_url":"https://www.nap-camp.com/aomori/11702","gmaps_url":"https://www.google.com/maps/search/?api=1&query=40.6667006,140.390028"},{"id":11703,"name":"弘前市こどもの森","prefecture":"青森","lat":40.540037,"lng":140.431274,"address":"青森県弘前市坂元山元","review_count":0,"rating":0.0,"open_year":null,"nap_url":"https://www.nap-camp.com/aomori/11703","gmaps_url":"https://www.google.com/maps/search/?api=1&query=40.5400370,140.431274"},{"id":11707,"name":"小渡平公園","prefecture":"青森","lat":40.507784,"lng":141.2458048,"address":"青森県三戸郡五戸町倉石中市字小渡88-1外","review_count":1,"rating":0.0,"open_year":null,"nap_url":"https://www.nap-camp.com/aomori/11707","gmaps_url":"https://www.google.com/maps/search/?api=1&query=40.507784,141.2458048"},{"id":11708,"name":"十和利荘","prefecture":"青森","lat":40.3807702,"lng":141.1711134,"address":"青森県三戸郡三戸町貝守貝守深山国有林83林班区","review_count":0,"rating":0.0,"open_year":null,"nap_url":"https://www.nap-camp.com/aomori/11708","gmaps_url":"https://www.google.com/maps/search/?api=1&query=40.3807702,141.1711134"},{"id":11709,"name":"【R1/7現在閉鎖中】迷ヶ平キャンプ場","prefecture":"青森","lat":40.3784065,"lng":141.2587454,"address":"青森県三戸郡三戸町字貝守深山国有林地内","review_count":0,"rating":0.0,"open_year":null,"nap_url":"https://www.nap-camp.com/aomori/11709","gmaps_url":"https://www.google.com/maps/search/?api=1&query=40.3784065,141.2587454"},{"id":11714,"name":"宇樽部キャンプ場","prefecture":"青森","lat":40.4276128,"lng":140.8940744,"address":"青森県十和田市大字奥瀬字宇樽部国有林","review_count":1,"rating":0.0,"open_year":null,"nap_url":"https://www.nap-camp.com/aomori/11714","gmaps_url":"https://www.google.com/maps/search/?api=1&query=40.4276128,140.8940744"},{"id":11717,"name":"横浜町砂浜海岸コテージ","prefecture":"青森","lat":41.0561905,"lng":141.2507777,"address":"青森県上北郡横浜町向平","review_count":0,"rating":0.0,"open_year":null,"nap_url":"https://www.nap-camp.com/aomori/11717","gmaps_url":"https://www.google.com/maps/search/?api=1&query=41.0561905,141.2507777"},{"id":11718,"name":"東八甲田家族旅行村","prefecture":"青森","lat":40.6995509,"lng":141.1009246,"address":"青森県上北郡七戸町字左組142-1","review_count":1,"rating":0.0,"open_year":null,"nap_url":"https://www.nap-camp.com/aomori/11718","gmaps_url":"https://www.google.com/maps/search/?api=1&query=40.6995509,141.1009246"},{"id":11720,"name":"七戸町中央公園","prefecture":"青森","lat":40.7387232,"lng":141.1655347,"address":"青森県上北郡七戸町中野16-1","review_count":0,"rating":0.0,"open_year":null,"nap_url":"https://www.nap-camp.com/aomori/11720","gmaps_url":"https://www.google.com/maps/search/?api=1&query=40.7387232,141.1655347"},{"id":11721,"name":"わかさぎ公園浜台キャンプ場","prefecture":"青森","lat":40.8222804,"lng":141.2978284,"address":"青森県上北郡東北町熊堂3-4","review_count":0,"rating":0.0,"open_year":null,"nap_url":"https://www.nap-camp.com/aomori/11721","gmaps_url":"https://www.google.com/maps/search/?api=1&query=40.8222804,141.2978284"},{"id":11726,"name":"柴崎地区健康レクリエーション施設","prefecture":"青森","lat":40.880461,"lng":141.062371,"address":"青森県上北郡野辺地町柴崎10-5","review_count":1,"rating":0.0,"open_year":null,"nap_url":"https://www.nap-camp.com/aomori/11726","gmaps_url":"https://www.google.com/maps/search/?api=1&query=40.8804610,141.062371"},{"id":11727,"name":"白神オートキャンプ場","prefecture":"青森","lat":40.6656527,"lng":140.1480994,"address":"青森県西津軽郡鯵ヶ沢町大字一ツ森字吉川30","review_count":0,"rating":0.0,"open_year":null,"nap_url":"https://www.nap-camp.com/aomori/11727","gmaps_url":"https://www.google.com/maps/search/?api=1&query=40.6656527,140.1480994"},{"id":11728,"name":"八森山町民の森公園","prefecture":"青森","lat":40.6328469,"lng":139.9172656,"address":"青森県西津軽郡深浦町深浦岡崎","review_count":0,"rating":0.0,"open_year":null,"nap_url":"https://www.nap-camp.com/aomori/11728","gmaps_url":"https://www.google.com/maps/search/?api=1&query=40.6328469,139.9172656"},{"id":11729,"name":"【R1/7現在閉鎖中】大間越ロマンの里オートキャンプ場","prefecture":"青森","lat":40.4775922,"lng":139.9486632,"address":"青森県西津軽郡深浦町大間越筧6","review_count":1,"rating":0.0,"open_year":null,"nap_url":"https://www.nap-camp.com/aomori/11729","gmaps_url":"https://www.google.com/maps/search/?api=1&query=40.4775922,139.9486632"},{"id":11731,"name":"十二湖リフレッシュ村","prefecture":"青森","lat":40.5561615,"lng":139.9761777,"address":"青森県西津軽郡深浦町大字松神字松神山1-57","review_count":1,"rating":0.0,"open_year":null,"nap_url":"https://www.nap-camp.com/aomori/11731","gmaps_url":"https://www.google.com/maps/search/?api=1&query=40.5561615,139.9761777"},{"id":11732,"name":"八森山キャンプ場","prefecture":"青森","lat":40.6413711,"lng":139.9247978,"address":"青森県西津軽郡深浦町大字深浦","review_count":0,"rating":0.0,"open_year":null,"nap_url":"https://www.nap-camp.com/aomori/11732","gmaps_url":"https://www.google.com/maps/search/?api=1&query=40.6413711,139.9247978"},{"id":11737,"name":"青森県民の森梵珠山キャンプ場","prefecture":"青森","lat":40.7938929,"lng":140.587444,"address":"青森県青森市浪岡大釈迦字沢内沢1-1","review_count":1,"rating":0.0,"open_year":null,"nap_url":"https://www.nap-camp.com/aomori/11737","gmaps_url":"https://www.google.com/maps/search/?api=1&query=40.7938929,140.587444"},{"id":11740,"name":"観瀾山公園海水浴場キャンプ場","prefecture":"青森","lat":41.0488201,"lng":140.6440475,"address":"青森県東津軽郡外ヶ浜町字蟹田中師宮本","review_count":0,"rating":0.0,"open_year":null,"nap_url":"https://www.nap-camp.com/aomori/11740","gmaps_url":"https://www.google.com/maps/search/?api=1&query=41.0488201,140.6440475"},{"id":11746,"name":"折腰内オートキャンプ場","prefecture":"青森","lat":41.1449049,"lng":140.3205958,"address":"青森県北津軽郡中泊町小泊折腰内45","review_count":1,"rating":0.0,"open_year":null,"nap_url":"https://www.nap-camp.com/aomori/11746","gmaps_url":"https://www.google.com/maps/search/?api=1&query=41.1449049,140.3205958"},{"id":11747,"name":"滝ノ沢ふるさと砂防愛ランド","prefecture":"青森","lat":40.9664506,"lng":140.4380173,"address":"青森県北津軽郡中泊町中里地区","review_count":0,"rating":0.0,"open_year":null,"nap_url":"https://www.nap-camp.com/aomori/11747","gmaps_url":"https://www.google.com/maps/search/?api=1&query=40.9664506,140.4380173"},{"id":13540,"name":"高野崎キャンプ場","prefecture":"青森","lat":41.2204105,"lng":140.5493526,"address":"青森県東津軽郡今別町袰月村下","review_count":1,"rating":0.0,"open_year":null,"nap_url":"https://www.nap-camp.com/aomori/13540","gmaps_url":"https://www.google.com/maps/search/?api=1&query=41.2204105,140.5493526"},{"id":13705,"name":"夜越山ケビンハウス","prefecture":"青森","lat":40.9216798,"lng":140.987762,"address":"青森県東津軽郡平内町浜子字堀替３６－１","review_count":0,"rating":0.0,"open_year":null,"nap_url":"https://www.nap-camp.com/aomori/13705","gmaps_url":"https://www.google.com/maps/search/?api=1&query=40.9216798,140.987762"},{"id":16502,"name":"タノナガノヤドッコ","prefecture":"青森","lat":40.851407532129365,"lng":140.36293180439728,"address":"青森県つがる市木造善積早稲田36-1","review_count":0,"rating":0.0,"open_year":null,"nap_url":"https://www.nap-camp.com/aomori/16502","gmaps_url":"https://www.google.com/maps/search/?api=1&query=40.851407532129365,140.36293180439728"},{"id":16533,"name":"TSUNAGARI NO MORI","prefecture":"岩手","lat":38.90323834412996,"lng":141.15956750691527,"address":"岩手県一関市真柴矢ノ目沢89-101TSUNAGARI NO MORI","review_count":9,"rating":4.6,"open_year":null,"nap_url":"https://www.nap-camp.com/iwate/16533","gmaps_url":"https://www.google.com/maps/search/?api=1&query=38.90323834412996,141.15956750691527"},{"id":14726,"name":"岩手山パノラマ大キャンプ場　supported by ogawa","prefecture":"岩手","lat":39.790044363699444,"lng":141.01888366686177,"address":"岩手県滝沢市鵜飼臨安102ペットの里内","review_count":49,"rating":3.9,"open_year":null,"nap_url":"https://www.nap-camp.com/iwate/14726","gmaps_url":"https://www.google.com/maps/search/?api=1&query=39.790044363699444,141.01888366686177"},{"id":15945,"name":"KIKORI campsite","prefecture":"岩手","lat":38.76667680411106,"lng":141.20860055152053,"address":"岩手県一関市花泉町永井字鹿沼639","review_count":43,"rating":4.6,"open_year":null,"nap_url":"https://www.nap-camp.com/iwate/15945","gmaps_url":"https://www.google.com/maps/search/?api=1&query=38.76667680411106,141.20860055152053"},{"id":13988,"name":"道の駅雫石あねっこ（小柳沢砂防公園キャンプ場）","prefecture":"岩手","lat":39.70886170395779,"lng":140.8738790170578,"address":"岩手県岩手郡雫石町橋場坂本118-10道の駅雫石あねっこ","review_count":40,"rating":4.3,"open_year":null,"nap_url":"https://www.nap-camp.com/iwate/13988","gmaps_url":"https://www.google.com/maps/search/?api=1&query=39.70886170395779,140.8738790170578"},{"id":14005,"name":"スノーピーク 陸前高田 キャンプフィールド","prefecture":"岩手","lat":38.988135,"lng":141.6765374,"address":"岩手県陸前高田市小友町獺沢１５５−７８","review_count":4,"rating":4.4,"open_year":null,"nap_url":"https://www.nap-camp.com/iwate/14005","gmaps_url":"https://www.google.com/maps/search/?api=1&query=38.988135,141.6765374"},{"id":15705,"name":"ワタミオーガニックランド","prefecture":"岩手","lat":39.01050658835232,"lng":141.6214910476074,"address":"岩手県陸前高田市気仙町土手影309","review_count":8,"rating":4.4,"open_year":null,"nap_url":"https://www.nap-camp.com/iwate/15705","gmaps_url":"https://www.google.com/maps/search/?api=1&query=39.01050658835232,141.6214910476074"},{"id":15828,"name":"キャンパスの森　Campus Forest Hachimantai","prefecture":"岩手","lat":39.90293454570231,"lng":140.98817920684814,"address":"岩手県八幡平市松尾寄木第一地割531番31","review_count":12,"rating":4.8,"open_year":null,"nap_url":"https://www.nap-camp.com/iwate/15828","gmaps_url":"https://www.google.com/maps/search/?api=1&query=39.90293454570231,140.98817920684814"},{"id":10335,"name":"折爪岳オートキャンプ場","prefecture":"岩手","lat":40.268598,"lng":141.3720657,"address":"岩手県二戸市福岡織詰","review_count":4,"rating":4.8,"open_year":null,"nap_url":"https://www.nap-camp.com/iwate/10335","gmaps_url":"https://www.google.com/maps/search/?api=1&query=40.268598,141.3720657"},{"id":10276,"name":"飛ヶ森キャンプ場","prefecture":"岩手","lat":38.9696173,"lng":141.4269186,"address":"岩手県一関市千厩町奥玉飛ヶ森11-80","review_count":2,"rating":4.8,"open_year":null,"nap_url":"https://www.nap-camp.com/iwate/10276","gmaps_url":"https://www.google.com/maps/search/?api=1&query=38.9696173,141.4269186"},{"id":16571,"name":"しづか亭","prefecture":"岩手","lat":38.9920248,"lng":141.0508592,"address":"岩手県西磐井郡平泉町平泉字長倉10-5奥州平泉温泉 そば庵 しづか亭","review_count":3,"rating":4.6,"open_year":null,"nap_url":"https://www.nap-camp.com/iwate/16571","gmaps_url":"https://www.google.com/maps/search/?api=1&query=38.9920248,141.0508592"},{"id":10330,"name":"いわて子どもの森","prefecture":"岩手","lat":40.0757601,"lng":141.1844868,"address":"岩手県二戸郡一戸町奥中山西田子1468-2","review_count":3,"rating":4.4,"open_year":null,"nap_url":"https://www.nap-camp.com/iwate/10330","gmaps_url":"https://www.google.com/maps/search/?api=1&query=40.0757601,141.1844868"},{"id":10272,"name":"いちのせき厳美オートキャンプ場","prefecture":"岩手","lat":38.9895494,"lng":140.9820674,"address":"岩手県一関市厳美町下菅生沢119-45","review_count":8,"rating":4.4,"open_year":null,"nap_url":"https://www.nap-camp.com/iwate/10272","gmaps_url":"https://www.google.com/maps/search/?api=1&query=38.9895494,140.9820674"},{"id":14366,"name":"GETO CAMPFIELD","prefecture":"岩手","lat":39.2366296805352,"lng":140.90627908515853,"address":"岩手県北上市和賀町岩崎新田夏油高原リゾート","review_count":157,"rating":4.3,"open_year":null,"nap_url":"https://www.nap-camp.com/iwate/14366","gmaps_url":"https://www.google.com/maps/search/?api=1&query=39.2366296805352,140.90627908515853"},{"id":10287,"name":"ふれあいらんど岩泉","prefecture":"岩手","lat":39.8408889,"lng":141.8663113,"address":"岩手県下閉伊郡岩泉町乙茂大向48","review_count":2,"rating":4.3,"open_year":null,"nap_url":"https://www.nap-camp.com/iwate/10287","gmaps_url":"https://www.google.com/maps/search/?api=1&query=39.8408889,141.8663113"},{"id":15798,"name":"the campus","prefecture":"岩手","lat":39.2520036,"lng":141.1462127,"address":"岩手県北上市稲瀬町田合田250","review_count":7,"rating":4.3,"open_year":null,"nap_url":"https://www.nap-camp.com/iwate/15798","gmaps_url":"https://www.google.com/maps/search/?api=1&query=39.2520036,141.1462127"},{"id":10318,"name":"種市海浜公園キャンプ場","prefecture":"岩手","lat":40.4017016,"lng":141.7198505,"address":"岩手県九戸郡洋野町種市第18地割105番地","review_count":2,"rating":4.2,"open_year":null,"nap_url":"https://www.nap-camp.com/iwate/10318","gmaps_url":"https://www.google.com/maps/search/?api=1&query=40.4017016,141.7198505"},{"id":10307,"name":"タイマグラキャンプ場","prefecture":"岩手","lat":39.5414172,"lng":141.5796375,"address":"岩手県宮古市江繋第５地割３－３","review_count":2,"rating":4.2,"open_year":null,"nap_url":"https://www.nap-camp.com/iwate/10307","gmaps_url":"https://www.google.com/maps/search/?api=1&query=39.5414172,141.5796375"},{"id":10324,"name":"盛岡市都南つどいの森","prefecture":"岩手","lat":39.6384587,"lng":141.0928339,"address":"岩手県盛岡市湯沢1-88","review_count":7,"rating":4.2,"open_year":null,"nap_url":"https://www.nap-camp.com/iwate/10324","gmaps_url":"https://www.google.com/maps/search/?api=1&query=39.6384587,141.0928339"},{"id":10281,"name":"種山高原星座の森","prefecture":"岩手","lat":39.1946012,"lng":141.3863506,"address":"岩手県奥州市江刺区米里大畑66-21","review_count":20,"rating":4.2,"open_year":null,"nap_url":"https://www.nap-camp.com/iwate/10281","gmaps_url":"https://www.google.com/maps/search/?api=1&query=39.1946012,141.3863506"},{"id":10342,"name":"北上総合運動公園キャンプ場","prefecture":"岩手","lat":39.2588339,"lng":141.092891,"address":"岩手県北上市相去町高前檀27-36","review_count":2,"rating":4.2,"open_year":null,"nap_url":"https://www.nap-camp.com/iwate/10342","gmaps_url":"https://www.google.com/maps/search/?api=1&query=39.2588339,141.092891"},{"id":10340,"name":"焼走りオートキャンプ場・キャビン村","prefecture":"岩手","lat":39.8779876,"lng":141.0425818,"address":"岩手県八幡平市平笠24-728","review_count":12,"rating":4.1,"open_year":null,"nap_url":"https://www.nap-camp.com/iwate/10340","gmaps_url":"https://www.google.com/maps/search/?api=1&query=39.8779876,141.0425818"},{"id":14459,"name":"まほら岩手キャンプ場","prefecture":"岩手","lat":39.7687645,"lng":141.3400722,"address":"岩手県盛岡市薮川外山436-1ひなたホール（受付）","review_count":27,"rating":4.1,"open_year":null,"nap_url":"https://www.nap-camp.com/iwate/14459","gmaps_url":"https://www.google.com/maps/search/?api=1&query=39.7687645,141.3400722"},{"id":10306,"name":"北侍浜野営場","prefecture":"岩手","lat":40.2685939,"lng":141.795522,"address":"岩手県久慈市侍浜町向町7-129-6","review_count":3,"rating":4.1,"open_year":null,"nap_url":"https://www.nap-camp.com/iwate/10306","gmaps_url":"https://www.google.com/maps/search/?api=1&query=40.2685939,141.795522"},{"id":10338,"name":"妻の神広場キャンプ場","prefecture":"岩手","lat":39.904758,"lng":140.9746203,"address":"岩手県八幡平市松尾寄木刈屋","review_count":6,"rating":4.1,"open_year":null,"nap_url":"https://www.nap-camp.com/iwate/10338","gmaps_url":"https://www.google.com/maps/search/?api=1&query=39.904758,140.9746203"},{"id":10289,"name":"【R1/10現在休止中】船越家族旅行村 オートキャンプ場","prefecture":"岩手","lat":39.4380686,"lng":141.9852819,"address":"岩手県下閉伊郡山田町船越9-266","review_count":5,"rating":4.0,"open_year":null,"nap_url":"https://www.nap-camp.com/iwate/10289","gmaps_url":"https://www.google.com/maps/search/?api=1&query=39.4380686,141.9852819"},{"id":10323,"name":"盛岡市外山森林公園キャンプ場","prefecture":"岩手","lat":39.7750406,"lng":141.279051,"address":"岩手県盛岡市玉山区薮川大の平31-1","review_count":2,"rating":4.0,"open_year":null,"nap_url":"https://www.nap-camp.com/iwate/10323","gmaps_url":"https://www.google.com/maps/search/?api=1&query=39.7750406,141.279051"},{"id":10273,"name":"真湯野営場","prefecture":"岩手","lat":38.9435146,"lng":141.0476712,"address":"岩手県一関市厳美町真湯地内","review_count":2,"rating":3.8,"open_year":null,"nap_url":"https://www.nap-camp.com/iwate/10273","gmaps_url":"https://www.google.com/maps/search/?api=1&query=38.9435146,141.0476712"},{"id":14535,"name":"Sunshine　Style　Village","prefecture":"岩手","lat":39.2419000465112,"lng":140.9830680470459,"address":"岩手県北上市和賀町岩崎新田2-43-5ヤマコ総合事業有限会社","review_count":5,"rating":3.8,"open_year":null,"nap_url":"https://www.nap-camp.com/iwate/14535","gmaps_url":"https://www.google.com/maps/search/?api=1&query=39.2419000465112,140.9830680470459"},{"id":10343,"name":"キャンプグランド　ベアーベル","prefecture":"岩手","lat":39.2665053,"lng":141.0034004,"address":"岩手県北上市和賀町岩崎新田1-149-3","review_count":6,"rating":3.7,"open_year":null,"nap_url":"https://www.nap-camp.com/iwate/10343","gmaps_url":"https://www.google.com/maps/search/?api=1&query=39.2665053,141.0034004"},{"id":10303,"name":"相の沢キャンプ場","prefecture":"岩手","lat":39.8020681,"lng":141.0077075,"address":"岩手県岩手郡滝沢村鵜飼安達114","review_count":3,"rating":3.6,"open_year":null,"nap_url":"https://www.nap-camp.com/iwate/10303","gmaps_url":"https://www.google.com/maps/search/?api=1&query=39.8020681,141.0077075"},{"id":10322,"name":"岩洞湖家族旅行村","prefecture":"岩手","lat":39.828925,"lng":141.3450962,"address":"岩手県盛岡市玉山区薮川亀橋33-4","review_count":4,"rating":3.5,"open_year":null,"nap_url":"https://www.nap-camp.com/iwate/10322","gmaps_url":"https://www.google.com/maps/search/?api=1&query=39.828925,141.3450962"},{"id":10280,"name":"衣川ふるさと自然塾","prefecture":"岩手","lat":39.0447773,"lng":141.0109268,"address":"岩手県奥州市衣川区下大森109-3","review_count":2,"rating":2.8,"open_year":null,"nap_url":"https://www.nap-camp.com/iwate/10280","gmaps_url":"https://www.google.com/maps/search/?api=1&query=39.0447773,141.0109268"},{"id":10284,"name":"つぶ沼広場キャンプ場","prefecture":"岩手","lat":39.1311361,"lng":141.0597097,"address":"岩手県奥州市胆沢区若柳谷子沢","review_count":2,"rating":2.8,"open_year":null,"nap_url":"https://www.nap-camp.com/iwate/10284","gmaps_url":"https://www.google.com/maps/search/?api=1&query=39.1311361,141.0597097"},{"id":14225,"name":"安比高原キャンプ","prefecture":"岩手","lat":40.0022729,"lng":140.9689247,"address":"岩手県八幡平市安比高原117-17","review_count":0,"rating":0.0,"open_year":null,"nap_url":"https://www.nap-camp.com/iwate/14225","gmaps_url":"https://www.google.com/maps/search/?api=1&query=40.0022729,140.9689247"},{"id":15693,"name":"クルマアソビ　アドベンチャーフィールド安比","prefecture":"岩手","lat":40.017998177131325,"lng":140.97215455767213,"address":"岩手県八幡平市細野255-2","review_count":1,"rating":0.0,"open_year":null,"nap_url":"https://www.nap-camp.com/iwate/15693","gmaps_url":"https://www.google.com/maps/search/?api=1&query=40.017998177131325,140.97215455767213"},{"id":16458,"name":"三陸アクティブ","prefecture":"岩手","lat":39.094625438199785,"lng":141.8045739067459,"address":"岩手県大船渡市三陸町越喜来字甫嶺134-2甫嶺復興交流推進センター","review_count":1,"rating":0.0,"open_year":null,"nap_url":"https://www.nap-camp.com/iwate/16458","gmaps_url":"https://www.google.com/maps/search/?api=1&query=39.094625438199785,141.8045739067459"},{"id":16839,"name":"三陸RVドローンパーク","prefecture":"岩手","lat":39.116173538112115,"lng":141.81557208354494,"address":"岩手県大船渡市三陸町越喜来　字杉下　11－1","review_count":0,"rating":0.0,"open_year":null,"nap_url":"https://www.nap-camp.com/iwate/16839","gmaps_url":"https://www.google.com/maps/search/?api=1&query=39.116173538112115,141.81557208354494"},{"id":10302,"name":"網張温泉キャンプ場","prefecture":"岩手","lat":39.82193443808597,"lng":140.9427700034273,"address":"岩手県岩手郡雫石町長山小松倉14-3","review_count":1,"rating":0.0,"open_year":null,"nap_url":"https://www.nap-camp.com/iwate/10302","gmaps_url":"https://www.google.com/maps/search/?api=1&query=39.82193443808597,140.9427700034273"},{"id":10329,"name":"千貫石森林公園キャンプ場","prefecture":"岩手","lat":39.22276089550769,"lng":141.00807900181468,"address":"岩手県胆沢郡金ケ崎町西根後千貫石１５","review_count":0,"rating":0.0,"open_year":null,"nap_url":"https://www.nap-camp.com/iwate/10329","gmaps_url":"https://www.google.com/maps/search/?api=1&query=39.22276089550769,141.00807900181468"},{"id":14111,"name":"八幡平コモンガーデン","prefecture":"岩手","lat":39.91018972829335,"lng":140.98155048576655,"address":"岩手県八幡平市松尾寄木1-474-6","review_count":0,"rating":0.0,"open_year":null,"nap_url":"https://www.nap-camp.com/iwate/14111","gmaps_url":"https://www.google.com/maps/search/?api=1&query=39.91018972829335,140.98155048576655"},{"id":16555,"name":"３S CAMP","prefecture":"岩手","lat":39.906681343866474,"lng":141.05479302596433,"address":"岩手県八幡平市平笠2-6-2993S CAMP","review_count":0,"rating":0.0,"open_year":null,"nap_url":"https://www.nap-camp.com/iwate/16555","gmaps_url":"https://www.google.com/maps/search/?api=1&query=39.906681343866474,141.05479302596433"},{"id":10270,"name":"花泉運動公園キャンプ場","prefecture":"岩手","lat":38.8347174,"lng":141.1682757,"address":"岩手県一関市花泉町花泉伊勢沢22","review_count":0,"rating":0.0,"open_year":null,"nap_url":"https://www.nap-camp.com/iwate/10270","gmaps_url":"https://www.google.com/maps/search/?api=1&query=38.8347174,141.1682757"},{"id":10271,"name":"刈生沢の滝渓流公園","prefecture":"岩手","lat":38.847927,"lng":141.172794,"address":"岩手県一関市花泉町金沢","review_count":1,"rating":0.0,"open_year":null,"nap_url":"https://www.nap-camp.com/iwate/10271","gmaps_url":"https://www.google.com/maps/search/?api=1&query=38.847927,141.172794"},{"id":10274,"name":"須川野営場","prefecture":"岩手","lat":38.9435146,"lng":141.0476712,"address":"岩手県一関市厳美町須川","review_count":0,"rating":0.0,"open_year":null,"nap_url":"https://www.nap-camp.com/iwate/10274","gmaps_url":"https://www.google.com/maps/search/?api=1&query=38.9435146,141.0476712"},{"id":10275,"name":"望洋平キャンプ場","prefecture":"岩手","lat":38.9744479,"lng":141.4503886,"address":"岩手県一関市室根町折壁室根山1-177","review_count":1,"rating":0.0,"open_year":null,"nap_url":"https://www.nap-camp.com/iwate/10275","gmaps_url":"https://www.google.com/maps/search/?api=1&query=38.9744479,141.4503886"},{"id":10277,"name":"黄金山キャンプ場","prefecture":"岩手","lat":38.9020714,"lng":141.3818654,"address":"岩手県一関市千厩町小梨","review_count":0,"rating":0.0,"open_year":null,"nap_url":"https://www.nap-camp.com/iwate/10277","gmaps_url":"https://www.google.com/maps/search/?api=1&query=38.9020714,141.3818654"},{"id":10278,"name":"アストロ・ロマン大東","prefecture":"岩手","lat":38.9942377,"lng":141.4652644,"address":"岩手県一関市大東町大原山口51-8","review_count":1,"rating":0.0,"open_year":null,"nap_url":"https://www.nap-camp.com/iwate/10278","gmaps_url":"https://www.google.com/maps/search/?api=1&query=38.9942377,141.4652644"},{"id":10279,"name":"【R2/4現在キャンプ場閉鎖】唐梅館総合公園","prefecture":"岩手","lat":38.9992289,"lng":141.250478,"address":"岩手県一関市東山町長坂西本町212-1","review_count":0,"rating":0.0,"open_year":null,"nap_url":"https://www.nap-camp.com/iwate/10279","gmaps_url":"https://www.google.com/maps/search/?api=1&query=38.9992289,141.250478"},{"id":10282,"name":"【H27/12現在閉鎖中】水沢区大師山荘","prefecture":"岩手","lat":39.0893528,"lng":141.2063731,"address":"岩手県奥州市水沢区黒石町長根112-69","review_count":0,"rating":0.0,"open_year":null,"nap_url":"https://www.nap-camp.com/iwate/10282","gmaps_url":"https://www.google.com/maps/search/?api=1&query=39.0893528,141.2063731"},{"id":10283,"name":"月山キャンプ場","prefecture":"岩手","lat":39.0571669,"lng":141.1754495,"address":"岩手県奥州市前沢区生母二子地内","review_count":0,"rating":0.0,"open_year":null,"nap_url":"https://www.nap-camp.com/iwate/10283","gmaps_url":"https://www.google.com/maps/search/?api=1&query=39.0571669,141.1754495"},{"id":10285,"name":"つぶ沼森の家ウッディランド","prefecture":"岩手","lat":39.1311361,"lng":141.0597097,"address":"岩手県奥州市胆沢区若柳谷子沢1-106","review_count":0,"rating":0.0,"open_year":null,"nap_url":"https://www.nap-camp.com/iwate/10285","gmaps_url":"https://www.google.com/maps/search/?api=1&query=39.1311361,141.0597097"},{"id":10286,"name":"氷渡交流施設バンガロー","prefecture":"岩手","lat":39.9880559,"lng":141.7037268,"address":"岩手県下閉伊郡岩泉町安家氷渡237-1","review_count":0,"rating":0.0,"open_year":null,"nap_url":"https://www.nap-camp.com/iwate/10286","gmaps_url":"https://www.google.com/maps/search/?api=1&query=39.9880559,141.7037268"},{"id":10288,"name":"龍泉洞青少年旅行村","prefecture":"岩手","lat":39.8628924,"lng":141.7906032,"address":"岩手県下閉伊郡岩泉町岩泉神成12","review_count":1,"rating":0.0,"open_year":null,"nap_url":"https://www.nap-camp.com/iwate/10288","gmaps_url":"https://www.google.com/maps/search/?api=1&query=39.8628924,141.7906032"},{"id":10291,"name":"明戸キャンプ場","prefecture":"岩手","lat":39.948095,"lng":141.932223,"address":"岩手県下閉伊郡田野畑村明戸157-3","review_count":1,"rating":0.0,"open_year":null,"nap_url":"https://www.nap-camp.com/iwate/10291","gmaps_url":"https://www.google.com/maps/search/?api=1&query=39.948095,141.932223"},{"id":10292,"name":"黒崎オートキャンプ場・黒崎キャンプ場","prefecture":"岩手","lat":40.0103355,"lng":141.9319952,"address":"岩手県下閉伊郡普代村黒崎園地内","review_count":0,"rating":0.0,"open_year":null,"nap_url":"https://www.nap-camp.com/iwate/10292","gmaps_url":"https://www.google.com/maps/search/?api=1&query=40.0103355,141.9319952"},{"id":10293,"name":"平塚・花巻交流の森","prefecture":"岩手","lat":39.4330853,"lng":141.0612023,"address":"岩手県花巻市金矢第5地割","review_count":1,"rating":0.0,"open_year":null,"nap_url":"https://www.nap-camp.com/iwate/10293","gmaps_url":"https://www.google.com/maps/search/?api=1&query=39.4330853,141.0612023"},{"id":10294,"name":"戸塚森森林公園","prefecture":"岩手","lat":39.491906,"lng":141.1579214,"address":"岩手県花巻市石鳥谷町新堀57-44-7","review_count":0,"rating":0.0,"open_year":null,"nap_url":"https://www.nap-camp.com/iwate/10294","gmaps_url":"https://www.google.com/maps/search/?api=1&query=39.491906,141.1579214"},{"id":10295,"name":"大迫笠詰キャンプ場","prefecture":"岩手","lat":39.4994461,"lng":141.3238952,"address":"岩手県花巻市大迫町内川目岳山国有林261林班","review_count":1,"rating":0.0,"open_year":null,"nap_url":"https://www.nap-camp.com/iwate/10295","gmaps_url":"https://www.google.com/maps/search/?api=1&query=39.4994461,141.3238952"},{"id":10296,"name":"田瀬湖オートキャンプ場","prefecture":"岩手","lat":39.3271503,"lng":141.3005874,"address":"岩手県花巻市東和町田瀬10-167-1","review_count":1,"rating":0.0,"open_year":null,"nap_url":"https://www.nap-camp.com/iwate/10296","gmaps_url":"https://www.google.com/maps/search/?api=1&query=39.3271503,141.3005874"},{"id":10297,"name":"東和いこいの森","prefecture":"岩手","lat":39.3169821,"lng":141.2997851,"address":"岩手県花巻市東和町田瀬13-48","review_count":0,"rating":0.0,"open_year":null,"nap_url":"https://www.nap-camp.com/iwate/10297","gmaps_url":"https://www.google.com/maps/search/?api=1&query=39.3169821,141.2997851"},{"id":10298,"name":"根浜海岸キャンプ場","prefecture":"岩手","lat":39.3262044,"lng":141.903019,"address":"岩手県岩手県釜石市鵜住居町第21地割23番地1外","review_count":0,"rating":0.0,"open_year":null,"nap_url":"https://www.nap-camp.com/iwate/10298","gmaps_url":"https://www.google.com/maps/search/?api=1&query=39.3262044,141.903019"},{"id":10300,"name":"国見キャンプ場","prefecture":"岩手","lat":39.703626,"lng":140.878572,"address":"岩手県岩手郡雫石町橋場竜川山国有林地内","review_count":0,"rating":0.0,"open_year":null,"nap_url":"https://www.nap-camp.com/iwate/10300","gmaps_url":"https://www.google.com/maps/search/?api=1&query=39.703626,140.878572"},{"id":10301,"name":"滝ノ上野営場","prefecture":"岩手","lat":39.8152967,"lng":140.902864,"address":"岩手県岩手郡雫石町長山北葛根田国有林内","review_count":0,"rating":0.0,"open_year":null,"nap_url":"https://www.nap-camp.com/iwate/10301","gmaps_url":"https://www.google.com/maps/search/?api=1&query=39.8152967,140.902864"},{"id":10304,"name":"馬返しキャンプ場","prefecture":"岩手","lat":39.8424762,"lng":141.0422098,"address":"岩手県岩手郡滝沢村滝沢上岩手山268-6","review_count":0,"rating":0.0,"open_year":null,"nap_url":"https://www.nap-camp.com/iwate/10304","gmaps_url":"https://www.google.com/maps/search/?api=1&query=39.8424762,141.0422098"},{"id":10305,"name":"平庭高原キャンプ場","prefecture":"岩手","lat":40.1905242,"lng":141.7755826,"address":"岩手県久慈市山形町平庭高原","review_count":0,"rating":0.0,"open_year":null,"nap_url":"https://www.nap-camp.com/iwate/10305","gmaps_url":"https://www.google.com/maps/search/?api=1&query=40.1905242,141.7755826"},{"id":10309,"name":"姉吉キャンプ場","prefecture":"岩手","lat":39.532680223155076,"lng":142.04941921928287,"address":"岩手県宮古市重茂姉吉","review_count":0,"rating":0.0,"open_year":null,"nap_url":"https://www.nap-camp.com/iwate/10309","gmaps_url":"https://www.google.com/maps/search/?api=1&query=39.532680223155076,142.04941921928287"},{"id":10310,"name":"沼の浜キャンプ場※休止中","prefecture":"岩手","lat":39.7595565,"lng":141.9798214,"address":"岩手県宮古市田老乙部野","review_count":1,"rating":0.0,"open_year":null,"nap_url":"https://www.nap-camp.com/iwate/10310","gmaps_url":"https://www.google.com/maps/search/?api=1&query=39.7595565,141.9798214"},{"id":10311,"name":"閉伊川オートキャンプ場","prefecture":"岩手","lat":39.6162526,"lng":141.7937361,"address":"岩手県宮古市茂市8-53","review_count":0,"rating":0.0,"open_year":null,"nap_url":"https://www.nap-camp.com/iwate/10311","gmaps_url":"https://www.google.com/maps/search/?api=1&query=39.6162526,141.7937361"},{"id":10312,"name":"コロポックルランド","prefecture":"岩手","lat":40.259472,"lng":141.3923057,"address":"岩手県九戸郡九戸村江刺家9-81","review_count":1,"rating":0.0,"open_year":null,"nap_url":"https://www.nap-camp.com/iwate/10312","gmaps_url":"https://www.google.com/maps/search/?api=1&query=40.259472,141.3923057"},{"id":10313,"name":"えぞと大自然のロマンの森","prefecture":"岩手","lat":40.3209572,"lng":141.4573165,"address":"岩手県九戸郡軽米町軽米9-53-1","review_count":0,"rating":0.0,"open_year":null,"nap_url":"https://www.nap-camp.com/iwate/10313","gmaps_url":"https://www.google.com/maps/search/?api=1&query=40.3209572,141.4573165"},{"id":10314,"name":"ミレットパーク","prefecture":"岩手","lat":40.2825912,"lng":141.3840114,"address":"岩手県九戸郡軽米町山内33-53-1","review_count":0,"rating":0.0,"open_year":null,"nap_url":"https://www.nap-camp.com/iwate/10314","gmaps_url":"https://www.google.com/maps/search/?api=1&query=40.2825912,141.3840114"},{"id":10315,"name":"雪谷川ダムフォリストパーク・軽米","prefecture":"岩手","lat":40.2881296,"lng":141.5165094,"address":"岩手県九戸郡軽米町小軽米20-3-1","review_count":1,"rating":0.0,"open_year":null,"nap_url":"https://www.nap-camp.com/iwate/10315","gmaps_url":"https://www.google.com/maps/search/?api=1&query=40.2881296,141.5165094"},{"id":10316,"name":"玉川野営場","prefecture":"岩手","lat":40.0810506,"lng":141.8257692,"address":"岩手県九戸郡野田村玉川","review_count":0,"rating":0.0,"open_year":null,"nap_url":"https://www.nap-camp.com/iwate/10316","gmaps_url":"https://www.google.com/maps/search/?api=1&query=40.0810506,141.8257692"},{"id":10317,"name":"大和の丘森林公園","prefecture":"岩手","lat":40.3585316,"lng":141.6211635,"address":"岩手県九戸郡洋野町種市71-61-1","review_count":0,"rating":0.0,"open_year":null,"nap_url":"https://www.nap-camp.com/iwate/10317","gmaps_url":"https://www.google.com/maps/search/?api=1&query=40.3585316,141.6211635"},{"id":10319,"name":"久慈平岳キャンプ場","prefecture":"岩手","lat":40.3287792,"lng":141.6068604,"address":"岩手県九戸郡洋野町上舘第55地割49-3","review_count":0,"rating":0.0,"open_year":null,"nap_url":"https://www.nap-camp.com/iwate/10319","gmaps_url":"https://www.google.com/maps/search/?api=1&query=40.3287792,141.6068604"},{"id":10320,"name":"【H30.10現在　閉鎖中】吉里吉里海岸キャンプ場","prefecture":"岩手","lat":39.3838568,"lng":141.9353483,"address":"岩手県上閉伊郡大槌町吉里々々3丁目地先","review_count":0,"rating":0.0,"open_year":null,"nap_url":"https://www.nap-camp.com/iwate/10320","gmaps_url":"https://www.google.com/maps/search/?api=1&query=39.3838568,141.9353483"},{"id":10321,"name":"姫神山一本杉園地キャンプ場","prefecture":"岩手","lat":39.8719577,"lng":141.2185137,"address":"岩手県盛岡市玉山区馬場前田33-162","review_count":1,"rating":0.0,"open_year":null,"nap_url":"https://www.nap-camp.com/iwate/10321","gmaps_url":"https://www.google.com/maps/search/?api=1&query=39.8719577,141.2185137"},{"id":10325,"name":"金鶏山山麓キャンプ場","prefecture":"岩手","lat":38.9919754,"lng":141.1100776,"address":"岩手県西磐井郡平泉町花立60","review_count":1,"rating":0.0,"open_year":null,"nap_url":"https://www.nap-camp.com/iwate/10325","gmaps_url":"https://www.google.com/maps/search/?api=1&query=38.9919754,141.1100776"},{"id":10326,"name":"大文字キャンプ場","prefecture":"岩手","lat":38.9949511,"lng":141.1431275,"address":"岩手県西磐井郡平泉町長島山田地内","review_count":0,"rating":0.0,"open_year":null,"nap_url":"https://www.nap-camp.com/iwate/10326","gmaps_url":"https://www.google.com/maps/search/?api=1&query=38.9949511,141.1431275"},{"id":10327,"name":"フレアイランド尾崎岬","prefecture":"岩手","lat":39.0242143,"lng":141.7393126,"address":"岩手県大船渡市赤崎町鳥沢188-7","review_count":0,"rating":0.0,"open_year":null,"nap_url":"https://www.nap-camp.com/iwate/10327","gmaps_url":"https://www.google.com/maps/search/?api=1&query=39.0242143,141.7393126"},{"id":10328,"name":"碁石海岸キャンプ場","prefecture":"岩手","lat":38.9907952,"lng":141.7424523,"address":"岩手県大船渡市末崎町大浜","review_count":1,"rating":0.0,"open_year":null,"nap_url":"https://www.nap-camp.com/iwate/10328","gmaps_url":"https://www.google.com/maps/search/?api=1&query=38.9907952,141.7424523"},{"id":10331,"name":"高森高原キャンプ場","prefecture":"岩手","lat":40.1717961,"lng":141.1966139,"address":"岩手県二戸郡一戸町出ル町与羽197-46","review_count":0,"rating":0.0,"open_year":null,"nap_url":"https://www.nap-camp.com/iwate/10331","gmaps_url":"https://www.google.com/maps/search/?api=1&query=40.1717961,141.1966139"},{"id":10332,"name":"二戸市民の森","prefecture":"岩手","lat":40.3324611,"lng":141.3386302,"address":"岩手県二戸市金田一大清水","review_count":0,"rating":0.0,"open_year":null,"nap_url":"https://www.nap-camp.com/iwate/10332","gmaps_url":"https://www.google.com/maps/search/?api=1&query=40.3324611,141.3386302"},{"id":10333,"name":"稲庭岳キャンプ場","prefecture":"岩手","lat":40.1492547,"lng":141.0839948,"address":"岩手県二戸市浄法寺町山内73","review_count":1,"rating":0.0,"open_year":null,"nap_url":"https://www.nap-camp.com/iwate/10333","gmaps_url":"https://www.google.com/maps/search/?api=1&query=40.1492547,141.0839948"},{"id":10334,"name":"県北青少年の家","prefecture":"岩手","lat":40.3218016,"lng":141.3516103,"address":"岩手県二戸市仁左平放森61-35","review_count":0,"rating":0.0,"open_year":null,"nap_url":"https://www.nap-camp.com/iwate/10334","gmaps_url":"https://www.google.com/maps/search/?api=1&query=40.3218016,141.3516103"},{"id":10336,"name":"県営松川キャンプ場","prefecture":"岩手","lat":39.9263614,"lng":141.0953354,"address":"岩手県八幡平市松川温泉","review_count":1,"rating":0.0,"open_year":null,"nap_url":"https://www.nap-camp.com/iwate/10336","gmaps_url":"https://www.google.com/maps/search/?api=1&query=39.9263614,141.0953354"},{"id":10337,"name":"（閉鎖）松川自然休養林キャンプ場","prefecture":"岩手","lat":39.904758,"lng":140.9746203,"address":"岩手県八幡平市松尾寄木","review_count":0,"rating":0.0,"open_year":null,"nap_url":"https://www.nap-camp.com/iwate/10337","gmaps_url":"https://www.google.com/maps/search/?api=1&query=39.904758,140.9746203"},{"id":10339,"name":"岩手県県民の森キャンプ場","prefecture":"岩手","lat":39.8955256,"lng":140.9651412,"address":"岩手県八幡平市松尾寄木第1地割515-5","review_count":1,"rating":0.0,"open_year":null,"nap_url":"https://www.nap-camp.com/iwate/10339","gmaps_url":"https://www.google.com/maps/search/?api=1&query=39.8955256,140.9651412"},{"id":10341,"name":"北上市憩いの森","prefecture":"岩手","lat":39.2630039,"lng":141.1285152,"address":"岩手県北上市稲瀬町岩脇24","review_count":0,"rating":0.0,"open_year":null,"nap_url":"https://www.nap-camp.com/iwate/10341","gmaps_url":"https://www.google.com/maps/search/?api=1&query=39.2630039,141.1285152"},{"id":10344,"name":"北上市民夏油温泉野営場","prefecture":"岩手","lat":39.2387128,"lng":140.9583914,"address":"岩手県北上市和賀町岩崎新田1地割","review_count":0,"rating":0.0,"open_year":null,"nap_url":"https://www.nap-camp.com/iwate/10344","gmaps_url":"https://www.google.com/maps/search/?api=1&query=39.2387128,140.9583914"},{"id":10345,"name":"焼地台公園キャンプ場","prefecture":"岩手","lat":39.3367381,"lng":140.772286,"address":"岩手県和賀郡西和賀町間木野24地割239-1","review_count":0,"rating":0.0,"open_year":null,"nap_url":"https://www.nap-camp.com/iwate/10345","gmaps_url":"https://www.google.com/maps/search/?api=1&query=39.3367381,140.772286"},{"id":10346,"name":"【H30/10現在閉鎖中】長峰公園","prefecture":"岩手","lat":39.3597136,"lng":140.7242544,"address":"岩手県和賀郡西和賀町左草2-181-1","review_count":0,"rating":0.0,"open_year":null,"nap_url":"https://www.nap-camp.com/iwate/10346","gmaps_url":"https://www.google.com/maps/search/?api=1&query=39.3597136,140.7242544"},{"id":10347,"name":"志賀来キャンプ場","prefecture":"岩手","lat":39.4178599,"lng":140.7607682,"address":"岩手県和賀郡西和賀町沢内鍵飯19-238","review_count":0,"rating":0.0,"open_year":null,"nap_url":"https://www.nap-camp.com/iwate/10347","gmaps_url":"https://www.google.com/maps/search/?api=1&query=39.4178599,140.7607682"},{"id":13521,"name":"源兵衛平高原キャンプ場","prefecture":"岩手","lat":39.6636832,"lng":141.7647977,"address":"岩手県宮古市刈屋第9地割98-6","review_count":0,"rating":0.0,"open_year":null,"nap_url":"https://www.nap-camp.com/iwate/13521","gmaps_url":"https://www.google.com/maps/search/?api=1&query=39.6636832,141.7647977"},{"id":13706,"name":"ロッジ　タンデム","prefecture":"岩手","lat":40.2641279,"lng":141.2989481,"address":"岩手県八幡平市 333−7","review_count":0,"rating":0.0,"open_year":null,"nap_url":"https://www.nap-camp.com/iwate/13706","gmaps_url":"https://www.google.com/maps/search/?api=1&query=40.2641279,141.2989481"},{"id":13790,"name":"鶯宿温泉 寿広園","prefecture":"岩手","lat":39.6409732,"lng":140.9356202,"address":"岩手県岩手郡雫石町鴬宿第１０地割２１−１","review_count":0,"rating":0.0,"open_year":null,"nap_url":"https://www.nap-camp.com/iwate/13790","gmaps_url":"https://www.google.com/maps/search/?api=1&query=39.6409732,140.9356202"},{"id":13791,"name":"サンタハウスGETO","prefecture":"岩手","lat":39.2452384,"lng":141.0058813,"address":"岩手県北上市和賀町岩崎２地割７７−１","review_count":1,"rating":0.0,"open_year":null,"nap_url":"https://www.nap-camp.com/iwate/13791","gmaps_url":"https://www.google.com/maps/search/?api=1&query=39.2452384,141.0058813"},{"id":13944,"name":"姉ヶ崎オートキャンプ場（休暇村陸中宮古）","prefecture":"岩手","lat":39.684241,"lng":141.982738,"address":"岩手県宮古市崎鍬ヶ崎18-25-3","review_count":1,"rating":0.0,"open_year":null,"nap_url":"https://www.nap-camp.com/iwate/13944","gmaps_url":"https://www.google.com/maps/search/?api=1&query=39.684241,141.982738"},{"id":14640,"name":"宮古市野外活動センター","prefecture":"岩手","lat":39.69466535079824,"lng":141.8729170763047,"address":"岩手県宮古市田代第15地割232番地","review_count":0,"rating":0.0,"open_year":null,"nap_url":"https://www.nap-camp.com/iwate/14640","gmaps_url":"https://www.google.com/maps/search/?api=1&query=39.69466535079824,141.8729170763047"},{"id":14641,"name":"区界高原キャンプ場","prefecture":"岩手","lat":39.65338658854621,"lng":141.35967039189572,"address":"岩手県宮古市区界第２地割１１１−５４","review_count":0,"rating":0.0,"open_year":null,"nap_url":"https://www.nap-camp.com/iwate/14641","gmaps_url":"https://www.google.com/maps/search/?api=1&query=39.65338658854621,141.35967039189572"},{"id":16006,"name":"離れのペンション＆レンタルcafe　クレソン","prefecture":"岩手","lat":39.789410993013085,"lng":140.97585821135146,"address":"岩手県岩手郡雫石町長山盆花平126-19","review_count":0,"rating":0.0,"open_year":null,"nap_url":"https://www.nap-camp.com/iwate/16006","gmaps_url":"https://www.google.com/maps/search/?api=1&query=39.789410993013085,140.97585821135146"},{"id":16470,"name":"RVパーク岩手山","prefecture":"岩手","lat":39.81385170952608,"lng":140.94746943085875,"address":"岩手県岩手郡雫石町長山岩手山22-394","review_count":0,"rating":0.0,"open_year":null,"nap_url":"https://www.nap-camp.com/iwate/16470","gmaps_url":"https://www.google.com/maps/search/?api=1&query=39.81385170952608,140.94746943085875"},{"id":16537,"name":"Luciola","prefecture":"岩手","lat":39.79206191556546,"lng":141.26355724681514,"address":"岩手県盛岡市大ヶ生2-58","review_count":0,"rating":0.0,"open_year":null,"nap_url":"https://www.nap-camp.com/iwate/16537","gmaps_url":"https://www.google.com/maps/search/?api=1&query=39.79206191556546,141.26355724681514"},{"id":16543,"name":"FUMOTO","prefecture":"岩手","lat":39.734956210214335,"lng":141.15182178744044,"address":"岩手県盛岡市東緑が丘27-25","review_count":0,"rating":0.0,"open_year":null,"nap_url":"https://www.nap-camp.com/iwate/16543","gmaps_url":"https://www.google.com/maps/search/?api=1&query=39.734956210214335,141.15182178744044"},{"id":10549,"name":"エコキャンプみちのく","prefecture":"宮城","lat":38.2000153,"lng":140.6716504,"address":"宮城県柴田郡川崎町大字川内字向原254番地エコキャンプみちのく","review_count":214,"rating":4.5,"open_year":null,"nap_url":"https://www.nap-camp.com/miyagi/10549","gmaps_url":"https://www.google.com/maps/search/?api=1&query=38.2000153,140.6716504"},{"id":10570,"name":"神割崎キャンプ場 ","prefecture":"宮城","lat":38.63433089999999,"lng":141.5277803,"address":"宮城県本吉郡南三陸町戸倉字寺浜81-23神割観光プラザ","review_count":222,"rating":4.3,"open_year":null,"nap_url":"https://www.nap-camp.com/miyagi/10570","gmaps_url":"https://www.google.com/maps/search/?api=1&query=38.63433089999999,141.5277803"},{"id":10536,"name":"みやぎ蔵王きららの森キャンプ場","prefecture":"宮城","lat":37.997506,"lng":140.367141,"address":"宮城県刈田郡七ヶ宿町字侭ノ上129","review_count":205,"rating":4.3,"open_year":null,"nap_url":"https://www.nap-camp.com/miyagi/10536","gmaps_url":"https://www.google.com/maps/search/?api=1&query=37.997506,140.367141"},{"id":10548,"name":"るぽぽの森","prefecture":"宮城","lat":38.21985586531992,"lng":140.5242458743439,"address":"宮城県柴田郡川崎町今宿字小屋沢山39","review_count":127,"rating":4.3,"open_year":null,"nap_url":"https://www.nap-camp.com/miyagi/10548","gmaps_url":"https://www.google.com/maps/search/?api=1&query=38.21985586531992,140.5242458743439"},{"id":14856,"name":"IZUMI PEAK BASE　（泉ピークベース）","prefecture":"宮城","lat":38.38844868362344,"lng":140.72655374147797,"address":"宮城県仙台市泉区福岡字岳山8-1","review_count":121,"rating":4.2,"open_year":null,"nap_url":"https://www.nap-camp.com/miyagi/14856","gmaps_url":"https://www.google.com/maps/search/?api=1&query=38.38844868362344,140.72655374147797"},{"id":10552,"name":"たびのCAMPING BASE 天守閣自然公園オートキャンプ場","prefecture":"宮城","lat":38.22978775609407,"lng":140.71189300251618,"address":"宮城県仙台市太白区秋保町湯元鹿乙1２-１","review_count":9,"rating":4.1,"open_year":null,"nap_url":"https://www.nap-camp.com/miyagi/10552","gmaps_url":"https://www.google.com/maps/search/?api=1&query=38.22978775609407,140.71189300251618"},{"id":14267,"name":"ドロキャン新川","prefecture":"宮城","lat":38.300267083727135,"lng":140.65777372940707,"address":"宮城県仙台市青葉区新川佐手山8-21","review_count":44,"rating":4.3,"open_year":null,"nap_url":"https://www.nap-camp.com/miyagi/14267","gmaps_url":"https://www.google.com/maps/search/?api=1&query=38.300267083727135,140.65777372940707"},{"id":16054,"name":"秋保ドローンキャンプ場","prefecture":"宮城","lat":38.27001105994226,"lng":140.62701928175355,"address":"宮城県仙台市太白区秋保町馬場竹林54-1","review_count":16,"rating":4.0,"open_year":null,"nap_url":"https://www.nap-camp.com/miyagi/16054","gmaps_url":"https://www.google.com/maps/search/?api=1&query=38.27001105994226,140.62701928175355"},{"id":15884,"name":"たびのCAMPIMG BASE 伊豆沼ラムサールキャンプ場","prefecture":"宮城","lat":38.71424035295018,"lng":141.12153404865722,"address":"宮城県登米市迫町新田字前沼149-7","review_count":1,"rating":0.0,"open_year":null,"nap_url":"https://www.nap-camp.com/miyagi/15884","gmaps_url":"https://www.google.com/maps/search/?api=1&query=38.71424035295018,141.12153404865722"},{"id":16187,"name":"真田庭園キャンプ場","prefecture":"宮城","lat":38.08718896633635,"lng":140.67178108122883,"address":"宮城県刈田郡蔵王町矢附川原畑23-1","review_count":5,"rating":3.2,"open_year":null,"nap_url":"https://www.nap-camp.com/miyagi/16187","gmaps_url":"https://www.google.com/maps/search/?api=1&query=38.08718896633635,140.67178108122883"},{"id":15055,"name":"GREEN BASE CAMP AKIU","prefecture":"宮城","lat":38.23503196327722,"lng":140.71366309618682,"address":"宮城県仙台市太白区秋保町湯元字太夫29−4","review_count":13,"rating":4.7,"open_year":null,"nap_url":"https://www.nap-camp.com/miyagi/15055","gmaps_url":"https://www.google.com/maps/search/?api=1&query=38.23503196327722,140.71366309618682"},{"id":16162,"name":"グランピング＆キャンプCAMELLIA 気仙沼大島","prefecture":"宮城","lat":38.8432409,"lng":141.6233588,"address":"宮城県気仙沼市中山245－2","review_count":1,"rating":0.0,"open_year":null,"nap_url":"https://www.nap-camp.com/miyagi/16162","gmaps_url":"https://www.google.com/maps/search/?api=1&query=38.8432409,141.6233588"},{"id":16577,"name":"鳴子農園キャンプ場","prefecture":"宮城","lat":38.71976205947007,"lng":140.79917813362124,"address":"宮城県大崎市鳴子温泉和田5番","review_count":3,"rating":3.9,"open_year":null,"nap_url":"https://www.nap-camp.com/miyagi/16577","gmaps_url":"https://www.google.com/maps/search/?api=1&query=38.71976205947007,140.79917813362124"},{"id":14929,"name":"WILD.ZAO.CAMP","prefecture":"宮城","lat":38.117298827527684,"lng":140.60881345760268,"address":"宮城県刈田郡蔵王町遠刈田温泉字小妻坂71-1WILD.ZAO.VILLAGE","review_count":2,"rating":4.6,"open_year":null,"nap_url":"https://www.nap-camp.com/miyagi/14929","gmaps_url":"https://www.google.com/maps/search/?api=1&query=38.117298827527684,140.60881345760268"},{"id":16442,"name":"AKIU CAMP RESORT","prefecture":"宮城","lat":38.26667029129293,"lng":140.6151506490738,"address":"宮城県仙台市太白区秋保町馬場滝原58","review_count":11,"rating":4.5,"open_year":null,"nap_url":"https://www.nap-camp.com/miyagi/16442","gmaps_url":"https://www.google.com/maps/search/?api=1&query=38.26667029129293,140.6151506490738"},{"id":10562,"name":"長沼フートピア公園キャンプ場","prefecture":"宮城","lat":38.6888735,"lng":141.134695,"address":"宮城県登米市迫町北方天形161-84","review_count":14,"rating":4.5,"open_year":null,"nap_url":"https://www.nap-camp.com/miyagi/10562","gmaps_url":"https://www.google.com/maps/search/?api=1&query=38.6888735,141.134695"},{"id":15853,"name":"HASEKURA CAMP FIELD","prefecture":"宮城","lat":38.1719518,"lng":140.7161428,"address":"宮城県柴田郡川崎町支倉塩沢9イーレ支倉王国施設内","review_count":31,"rating":4.5,"open_year":null,"nap_url":"https://www.nap-camp.com/miyagi/15853","gmaps_url":"https://www.google.com/maps/search/?api=1&query=38.1719518,140.7161428"},{"id":10559,"name":"吹上高原キャンプ場","prefecture":"宮城","lat":38.8018784,"lng":140.6655224,"address":"宮城県大崎市鳴子温泉鬼首本宮原23-38","review_count":28,"rating":4.3,"open_year":null,"nap_url":"https://www.nap-camp.com/miyagi/10559","gmaps_url":"https://www.google.com/maps/search/?api=1&query=38.8018784,140.6655224"},{"id":10553,"name":"秋保森林スポーツ公園","prefecture":"宮城","lat":38.2321356,"lng":140.7206481,"address":"宮城県仙台市太白区秋保町湯元字青木33-1秋保森林スポーツ公園内","review_count":8,"rating":4.2,"open_year":null,"nap_url":"https://www.nap-camp.com/miyagi/10553","gmaps_url":"https://www.google.com/maps/search/?api=1&query=38.2321356,140.7206481"},{"id":10561,"name":"キャンピングビレッジ　登米森林公園","prefecture":"宮城","lat":38.6866367,"lng":141.3456069,"address":"宮城県登米市登米町日根牛上羽沢158-23","review_count":10,"rating":4.2,"open_year":null,"nap_url":"https://www.nap-camp.com/miyagi/10561","gmaps_url":"https://www.google.com/maps/search/?api=1&query=38.6866367,141.3456069"},{"id":10554,"name":"たびのCAMPING BASE 秋保木の家","prefecture":"宮城","lat":38.2325768,"lng":140.7060945,"address":"宮城県仙台市太白区秋保町湯元字馬乙2-1","review_count":5,"rating":4.2,"open_year":null,"nap_url":"https://www.nap-camp.com/miyagi/10554","gmaps_url":"https://www.google.com/maps/search/?api=1&query=38.2325768,140.7060945"},{"id":10531,"name":"不動尊公園キャンプ場","prefecture":"宮城","lat":37.8692644,"lng":140.7814706,"address":"宮城県伊具郡丸森町不動64-1","review_count":6,"rating":4.1,"open_year":null,"nap_url":"https://www.nap-camp.com/miyagi/10531","gmaps_url":"https://www.google.com/maps/search/?api=1&query=37.8692644,140.7814706"},{"id":10537,"name":"休暇村気仙沼大島キャンプ場","prefecture":"宮城","lat":38.864521,"lng":141.6252188,"address":"宮城県気仙沼市外畑16","review_count":9,"rating":4.0,"open_year":null,"nap_url":"https://www.nap-camp.com/miyagi/10537","gmaps_url":"https://www.google.com/maps/search/?api=1&query=38.864521,141.6252188"},{"id":10541,"name":"国立花山青少年自然の家キャンプ場","prefecture":"宮城","lat":38.813613,"lng":140.825304,"address":"宮城県栗原市花山本沢沼山61-1","review_count":3,"rating":4.0,"open_year":null,"nap_url":"https://www.nap-camp.com/miyagi/10541","gmaps_url":"https://www.google.com/maps/search/?api=1&query=38.813613,140.825304"},{"id":10551,"name":"水の森公園キャンプ場","prefecture":"宮城","lat":38.3093099,"lng":140.8609012,"address":"宮城県仙台市泉区上谷刈堤下8","review_count":15,"rating":4.0,"open_year":null,"nap_url":"https://www.nap-camp.com/miyagi/10551","gmaps_url":"https://www.google.com/maps/search/?api=1&query=38.3093099,140.8609012"},{"id":14588,"name":"たびのCAMPIMG BASE 加美大滝","prefecture":"宮城","lat":38.5636292,"lng":140.6961359,"address":"宮城県加美郡加美町鹿原南滝庭1","review_count":9,"rating":3.9,"open_year":null,"nap_url":"https://www.nap-camp.com/miyagi/14588","gmaps_url":"https://www.google.com/maps/search/?api=1&query=38.5636292,140.6961359"},{"id":14161,"name":"【閉鎖】くもわくテラス 天空キャンプ","prefecture":"宮城","lat":38.1349194,"lng":140.4948378,"address":"宮城県刈田郡蔵王町遠刈田温泉字倉石岳国有林内みやぎ蔵王スキー場すみかわスノーパーク","review_count":25,"rating":3.8,"open_year":null,"nap_url":"https://www.nap-camp.com/miyagi/14161","gmaps_url":"https://www.google.com/maps/search/?api=1&query=38.1349194,140.4948378"},{"id":10568,"name":"グリーンパーク不忘","prefecture":"宮城","lat":38.039878,"lng":140.50773,"address":"宮城県白石市福岡八宮不忘140","review_count":5,"rating":3.8,"open_year":null,"nap_url":"https://www.nap-camp.com/miyagi/10568","gmaps_url":"https://www.google.com/maps/search/?api=1&query=38.039878,140.50773"},{"id":10539,"name":"森林公園町民の森松島町野外活動センター","prefecture":"宮城","lat":38.41039,"lng":141.061914,"address":"宮城県宮城郡松島町根廻上山王6-1","review_count":5,"rating":3.8,"open_year":null,"nap_url":"https://www.nap-camp.com/miyagi/10539","gmaps_url":"https://www.google.com/maps/search/?api=1&query=38.41039,141.061914"},{"id":10532,"name":"たびのCAMPINGBASE 加美ゆーらんど","prefecture":"宮城","lat":38.6342539,"lng":140.7083901,"address":"宮城県加美郡加美町宮崎切込2番70","review_count":22,"rating":3.7,"open_year":null,"nap_url":"https://www.nap-camp.com/miyagi/10532","gmaps_url":"https://www.google.com/maps/search/?api=1&query=38.6342539,140.7083901"},{"id":10544,"name":"ウッドエッグ アウトドアパーク（牛野ダムキャンプ場）（旧：達居森と湖畔自然公園キャンプ場）","prefecture":"宮城","lat":38.4783619,"lng":140.808137,"address":"宮城県黒川郡大衡村大瓜牛野9","review_count":4,"rating":3.6,"open_year":null,"nap_url":"https://www.nap-camp.com/miyagi/10544","gmaps_url":"https://www.google.com/maps/search/?api=1&query=38.4783619,140.808137"},{"id":10546,"name":"七ツ森ふれあいの里","prefecture":"宮城","lat":38.4240431,"lng":140.8202029,"address":"宮城県黒川郡大和町宮床高山120-11","review_count":2,"rating":3.6,"open_year":null,"nap_url":"https://www.nap-camp.com/miyagi/10546","gmaps_url":"https://www.google.com/maps/search/?api=1&query=38.4240431,140.8202029"},{"id":10547,"name":"富谷市総合運動公園","prefecture":"宮城","lat":38.4027253,"lng":140.8815088,"address":"宮城県黒川郡富谷町一ノ関臑合山6-8","review_count":3,"rating":3.6,"open_year":null,"nap_url":"https://www.nap-camp.com/miyagi/10547","gmaps_url":"https://www.google.com/maps/search/?api=1&query=38.4027253,140.8815088"},{"id":10550,"name":"大倉ふるさとセンターキャンプ場","prefecture":"宮城","lat":38.3383539,"lng":140.6859154,"address":"宮城県仙台市青葉区大倉若林14-2","review_count":3,"rating":3.6,"open_year":null,"nap_url":"https://www.nap-camp.com/miyagi/10550","gmaps_url":"https://www.google.com/maps/search/?api=1&query=38.3383539,140.6859154"},{"id":10543,"name":"新堤自然公園 レークキャンプ広場","prefecture":"宮城","lat":38.65751568439856,"lng":140.98843395709991,"address":"宮城県栗原市高清水町勝負ヶ町84-1","review_count":2,"rating":3.3,"open_year":null,"nap_url":"https://www.nap-camp.com/miyagi/10543","gmaps_url":"https://www.google.com/maps/search/?api=1&query=38.65751568439856,140.98843395709991"},{"id":16748,"name":"せんだい農業園芸センター","prefecture":"宮城","lat":38.23733629021697,"lng":140.96699710013885,"address":"宮城県仙台市若林区荒井字切新田13-1","review_count":1,"rating":0.0,"open_year":null,"nap_url":"https://www.nap-camp.com/miyagi/16748","gmaps_url":"https://www.google.com/maps/search/?api=1&query=38.23733629021697,140.96699710013885"},{"id":15819,"name":"秋保カナダキャンプ場","prefecture":"宮城","lat":38.2441676301134,"lng":140.6906578540802,"address":"宮城県仙台市太白区秋保町境野字中原136-3","review_count":0,"rating":0.0,"open_year":null,"nap_url":"https://www.nap-camp.com/miyagi/15819","gmaps_url":"https://www.google.com/maps/search/?api=1&query=38.2441676301134,140.6906578540802"},{"id":16218,"name":"森のコテージ気仙沼","prefecture":"宮城","lat":38.8697405,"lng":141.5604284,"address":"宮城県気仙沼市松崎地生130-12森のコテージ気仙沼","review_count":0,"rating":0.0,"open_year":null,"nap_url":"https://www.nap-camp.com/miyagi/16218","gmaps_url":"https://www.google.com/maps/search/?api=1&query=38.8697405,141.5604284"},{"id":10533,"name":"田代高原キャンプ場","prefecture":"宮城","lat":38.6341059,"lng":140.7257712,"address":"宮城県加美郡加美町宮崎北28-3","review_count":0,"rating":0.0,"open_year":null,"nap_url":"https://www.nap-camp.com/miyagi/10533","gmaps_url":"https://www.google.com/maps/search/?api=1&query=38.6341059,140.7257712"},{"id":10535,"name":"南蔵王青少年旅行村","prefecture":"宮城","lat":38.027302,"lng":140.471475,"address":"宮城県刈田郡七ヶ宿町上の平29","review_count":1,"rating":0.0,"open_year":null,"nap_url":"https://www.nap-camp.com/miyagi/10535","gmaps_url":"https://www.google.com/maps/search/?api=1&query=38.027302,140.471475"},{"id":10538,"name":"御崎野営場","prefecture":"宮城","lat":38.8635278,"lng":141.6723375,"address":"宮城県気仙沼市唐桑町崎浜4","review_count":1,"rating":0.0,"open_year":null,"nap_url":"https://www.nap-camp.com/miyagi/10538","gmaps_url":"https://www.google.com/maps/search/?api=1&query=38.8635278,141.6723375"},{"id":10540,"name":"花山青少年旅行村","prefecture":"宮城","lat":38.791256,"lng":140.856264,"address":"宮城県栗原市花山本沢稲干場2-1","review_count":1,"rating":0.0,"open_year":null,"nap_url":"https://www.nap-camp.com/miyagi/10540","gmaps_url":"https://www.google.com/maps/search/?api=1&query=38.791256,140.856264"},{"id":10542,"name":"栗駒高原オートキャンプ場【H27/5現在閉鎖中】","prefecture":"宮城","lat":38.9295792,"lng":140.832502,"address":"宮城県栗原市栗駒沼倉耕英東6-1","review_count":1,"rating":0.0,"open_year":null,"nap_url":"https://www.nap-camp.com/miyagi/10542","gmaps_url":"https://www.google.com/maps/search/?api=1&query=38.9295792,140.832502"},{"id":10545,"name":"旗坂野営場","prefecture":"宮城","lat":38.457638,"lng":140.680314,"address":"宮城県黒川郡大和町吉田桝沢","review_count":1,"rating":0.0,"open_year":null,"nap_url":"https://www.nap-camp.com/miyagi/10545","gmaps_url":"https://www.google.com/maps/search/?api=1&query=38.457638,140.680314"},{"id":10555,"name":"二口キャンプ場","prefecture":"宮城","lat":38.2732815,"lng":140.5435623,"address":"宮城県仙台市太白区秋保町馬場中小屋3-1","review_count":1,"rating":0.0,"open_year":null,"nap_url":"https://www.nap-camp.com/miyagi/10555","gmaps_url":"https://www.google.com/maps/search/?api=1&query=38.2732815,140.5435623"},{"id":10556,"name":"市民岩出山いこいの森","prefecture":"宮城","lat":38.647579,"lng":140.839548,"address":"宮城県大崎市岩出山南沢木通沢132-1","review_count":0,"rating":0.0,"open_year":null,"nap_url":"https://www.nap-camp.com/miyagi/10556","gmaps_url":"https://www.google.com/maps/search/?api=1&query=38.647579,140.839548"},{"id":10557,"name":"加護坊山キャンプ場","prefecture":"宮城","lat":38.5902446,"lng":141.1064248,"address":"宮城県大崎市田尻大沢加護峰山178-1","review_count":1,"rating":0.0,"open_year":null,"nap_url":"https://www.nap-camp.com/miyagi/10557","gmaps_url":"https://www.google.com/maps/search/?api=1&query=38.5902446,141.1064248"},{"id":10558,"name":"オニコウベスキー場（キャンプ場）","prefecture":"宮城","lat":38.786991,"lng":140.639201,"address":"宮城県大崎市鳴子温泉鬼首小向原9-55","review_count":0,"rating":0.0,"open_year":null,"nap_url":"https://www.nap-camp.com/miyagi/10558","gmaps_url":"https://www.google.com/maps/search/?api=1&query=38.786991,140.639201"},{"id":10560,"name":"グリーンキャンプなかだ","prefecture":"宮城","lat":38.7515077,"lng":141.2728272,"address":"宮城県登米市中田町上沼本宮8-1","review_count":1,"rating":0.0,"open_year":null,"nap_url":"https://www.nap-camp.com/miyagi/10560","gmaps_url":"https://www.google.com/maps/search/?api=1&query=38.7515077,141.2728272"},{"id":10563,"name":"兵粮山キャンプ場","prefecture":"宮城","lat":38.6939149,"lng":141.1442354,"address":"宮城県登米市迫町北方兵粮","review_count":0,"rating":0.0,"open_year":null,"nap_url":"https://www.nap-camp.com/miyagi/10563","gmaps_url":"https://www.google.com/maps/search/?api=1&query=38.6939149,141.1442354"},{"id":10564,"name":"平筒沼ふれあい公園","prefecture":"宮城","lat":38.616513,"lng":141.235959,"address":"宮城県登米市米山町桜岡貝待井581-2","review_count":1,"rating":0.0,"open_year":null,"nap_url":"https://www.nap-camp.com/miyagi/10564","gmaps_url":"https://www.google.com/maps/search/?api=1&query=38.616513,141.235959"},{"id":10565,"name":"宮城県松島自然の家","prefecture":"宮城","lat":38.434602,"lng":141.184535,"address":"宮城県東松島市野蒜洲崎71-202","review_count":0,"rating":0.0,"open_year":null,"nap_url":"https://www.nap-camp.com/miyagi/10565","gmaps_url":"https://www.google.com/maps/search/?api=1&query=38.434602,141.184535"},{"id":10566,"name":"国立花山青少年自然の家南蔵王野営場","prefecture":"宮城","lat":38.0787934,"lng":140.5430239,"address":"宮城県白石市福岡深谷白萩山39","review_count":0,"rating":0.0,"open_year":null,"nap_url":"https://www.nap-camp.com/miyagi/10566","gmaps_url":"https://www.google.com/maps/search/?api=1&query=38.0787934,140.5430239"},{"id":10567,"name":"【H19/7現在休業中】南蔵王温泉　湯々里ミートランド","prefecture":"宮城","lat":38.0294003,"lng":140.5316466,"address":"宮城県白石市福岡八宮川原子上2","review_count":1,"rating":0.0,"open_year":null,"nap_url":"https://www.nap-camp.com/miyagi/10567","gmaps_url":"https://www.google.com/maps/search/?api=1&query=38.0294003,140.5316466"},{"id":10569,"name":"南三陸町平成の森キャンプ場","prefecture":"宮城","lat":38.720391,"lng":141.536969,"address":"宮城県本吉郡南三陸町歌津枡沢28-1","review_count":1,"rating":0.0,"open_year":null,"nap_url":"https://www.nap-camp.com/miyagi/10569","gmaps_url":"https://www.google.com/maps/search/?api=1&query=38.720391,141.536969"},{"id":13634,"name":"三滝堂ふれあい公園","prefecture":"宮城","lat":38.7197318,"lng":141.3144028,"address":"宮城県登米市東和町米谷字相川１-６","review_count":0,"rating":0.0,"open_year":null,"nap_url":"https://www.nap-camp.com/miyagi/13634","gmaps_url":"https://www.google.com/maps/search/?api=1&query=38.7197318,141.3144028"},{"id":14055,"name":"おしか家族旅行村オートキャンプ場","prefecture":"宮城","lat":38.298617,"lng":141.525498,"address":"宮城県石巻市鮎川浜駒ヶ峯1-1","review_count":5,"rating":3.9,"open_year":null,"nap_url":"https://www.nap-camp.com/miyagi/14055","gmaps_url":"https://www.google.com/maps/search/?api=1&query=38.298617,141.525498"},{"id":14104,"name":"遠刈田公園キャンプ場","prefecture":"宮城","lat":38.12578988028251,"lng":140.5697267735586,"address":"宮城県刈田郡蔵王町遠刈田温泉","review_count":1,"rating":0.0,"open_year":null,"nap_url":"https://www.nap-camp.com/miyagi/14104","gmaps_url":"https://www.google.com/maps/search/?api=1&query=38.12578988028251,140.5697267735586"},{"id":14172,"name":"でんえん土田畑村","prefecture":"宮城","lat":38.489165,"lng":141.132605,"address":"宮城県遠田郡美里町木間塚原田5","review_count":1,"rating":0.0,"open_year":null,"nap_url":"https://www.nap-camp.com/miyagi/14172","gmaps_url":"https://www.google.com/maps/search/?api=1&query=38.489165,141.132605"},{"id":14266,"name":"白浜ビーチパーク","prefecture":"宮城","lat":38.58645796175503,"lng":141.47506703564147,"address":"宮城県石巻市北上町十三浜白浜","review_count":0,"rating":0.0,"open_year":null,"nap_url":"https://www.nap-camp.com/miyagi/14266","gmaps_url":"https://www.google.com/maps/search/?api=1&query=38.58645796175503,141.47506703564147"},{"id":15921,"name":"七ヶ宿町南蔵王やまびこの森キャンプ場","prefecture":"宮城","lat":38.02745957839257,"lng":140.47202744068147,"address":"宮城県刈田郡七ヶ宿町字上ノ平29","review_count":0,"rating":0.0,"open_year":null,"nap_url":"https://www.nap-camp.com/miyagi/15921","gmaps_url":"https://www.google.com/maps/search/?api=1&query=38.02745957839257,140.47202744068147"},{"id":16256,"name":"MSBぴかぴかパーク0ne","prefecture":"宮城","lat":38.12442825970142,"lng":140.57596357305243,"address":"宮城県刈田郡蔵王町遠刈田温泉仲町7","review_count":0,"rating":0.0,"open_year":null,"nap_url":"https://www.nap-camp.com/miyagi/16256","gmaps_url":"https://www.google.com/maps/search/?api=1&query=38.12442825970142,140.57596357305243"},{"id":16553,"name":"クマさんキャンプ場","prefecture":"宮城","lat":38.56954078032839,"lng":140.71973311533952,"address":"宮城県加美郡加美町字薬来原１−１４５","review_count":1,"rating":0.0,"open_year":null,"nap_url":"https://www.nap-camp.com/miyagi/16553","gmaps_url":"https://www.google.com/maps/search/?api=1&query=38.56954078032839,140.71973311533952"},{"id":11522,"name":"とことん山キャンプ場","prefecture":"秋田","lat":39.01063947571862,"lng":140.65925179391786,"address":"秋田県湯沢市皆瀬字新処106番地","review_count":56,"rating":4.3,"open_year":null,"nap_url":"https://www.nap-camp.com/akita/11522","gmaps_url":"https://www.google.com/maps/search/?api=1&query=39.01063947571862,140.65925179391786"},{"id":13935,"name":"中滝ふるさと学舎","prefecture":"秋田","lat":40.372601,"lng":140.885064,"address":"秋田県鹿角市十和田大湯字白沢45-1","review_count":11,"rating":4.3,"open_year":null,"nap_url":"https://www.nap-camp.com/akita/13935","gmaps_url":"https://www.google.com/maps/search/?api=1&query=40.372601,140.885064"},{"id":11529,"name":"北欧の杜公園オートキャンプ場","prefecture":"秋田","lat":40.16442314861916,"lng":140.36390191645506,"address":"秋田県北秋田市上杉字中山沢128北欧の杜公園オートキャンプ場","review_count":41,"rating":4.5,"open_year":null,"nap_url":"https://www.nap-camp.com/akita/11529","gmaps_url":"https://www.google.com/maps/search/?api=1&query=40.16442314861916,140.36390191645506"},{"id":15720,"name":"RVライフ秋田","prefecture":"秋田","lat":39.730082465193924,"lng":140.08824065250093,"address":"秋田県秋田市寺内油田2丁目1-52","review_count":16,"rating":4.2,"open_year":null,"nap_url":"https://www.nap-camp.com/akita/15720","gmaps_url":"https://www.google.com/maps/search/?api=1&query=39.730082465193924,140.08824065250093"},{"id":16778,"name":"じゅんさい沼 キャンプ場","prefecture":"秋田","lat":39.0207153,"lng":140.607765,"address":"秋田県湯沢市高松字下新田山6","review_count":2,"rating":4.7,"open_year":null,"nap_url":"https://www.nap-camp.com/akita/16778","gmaps_url":"https://www.google.com/maps/search/?api=1&query=39.0207153,140.607765"},{"id":13616,"name":"秋田県立中央公園ファミリーキャンプ場","prefecture":"秋田","lat":39.618318078855154,"lng":140.22952294603272,"address":"秋田県秋田市雄和椿川字軽井沢55","review_count":2,"rating":4.8,"open_year":null,"nap_url":"https://www.nap-camp.com/akita/13616","gmaps_url":"https://www.google.com/maps/search/?api=1&query=39.618318078855154,140.22952294603272"},{"id":11507,"name":"雁の里ふれあいの森キャンプ場","prefecture":"秋田","lat":39.3632745,"lng":140.5483512,"address":"秋田県仙北郡美郷町飯詰東西法寺34","review_count":2,"rating":4.7,"open_year":null,"nap_url":"https://www.nap-camp.com/akita/11507","gmaps_url":"https://www.google.com/maps/search/?api=1&query=39.3632745,140.5483512"},{"id":11511,"name":"田沢湖オートキャンプ場縄文の森たざわこ","prefecture":"秋田","lat":39.74347776770133,"lng":140.6868839263916,"address":"秋田県仙北市田沢湖田沢潟前63-2","review_count":9,"rating":4.6,"open_year":null,"nap_url":"https://www.nap-camp.com/akita/11511","gmaps_url":"https://www.google.com/maps/search/?api=1&query=39.74347776770133,140.6868839263916"},{"id":11496,"name":"十和田湖 生出野営場","prefecture":"秋田","lat":40.4130083,"lng":140.8688945,"address":"秋田県鹿角郡小坂町十和田湖生出","review_count":7,"rating":4.5,"open_year":null,"nap_url":"https://www.nap-camp.com/akita/11496","gmaps_url":"https://www.google.com/maps/search/?api=1&query=40.4130083,140.8688945"},{"id":11510,"name":"休暇村 乳頭温泉郷 乳頭キャンプ場","prefecture":"秋田","lat":39.8008969,"lng":140.7947299,"address":"秋田県仙北市田沢湖駒ヶ岳2-1","review_count":3,"rating":4.4,"open_year":null,"nap_url":"https://www.nap-camp.com/akita/11510","gmaps_url":"https://www.google.com/maps/search/?api=1&query=39.8008969,140.7947299"},{"id":11499,"name":"後生掛（大沼）キャンプ場","prefecture":"秋田","lat":39.9797761,"lng":140.7983328,"address":"秋田県鹿角市八幡平字大沼1後生掛（大沼）キャンプ場","review_count":12,"rating":4.3,"open_year":null,"nap_url":"https://www.nap-camp.com/akita/11499","gmaps_url":"https://www.google.com/maps/search/?api=1&query=39.9797761,140.7983328"},{"id":11519,"name":"なまはげオートキャンプ場","prefecture":"秋田","lat":39.9531807,"lng":139.7585284,"address":"秋田県男鹿市北浦北浦平岱山地内","review_count":21,"rating":4.2,"open_year":null,"nap_url":"https://www.nap-camp.com/akita/11519","gmaps_url":"https://www.google.com/maps/search/?api=1&query=39.9531807,139.7585284"},{"id":11512,"name":"田沢湖キャンプ場","prefecture":"秋田","lat":39.72765288928957,"lng":140.70134947055232,"address":"秋田県仙北市田沢湖田沢字春山152","review_count":49,"rating":4.2,"open_year":null,"nap_url":"https://www.nap-camp.com/akita/11512","gmaps_url":"https://www.google.com/maps/search/?api=1&query=39.72765288928957,140.70134947055232"},{"id":11509,"name":"かたまえ山森林公園","prefecture":"秋田","lat":39.7160144,"lng":140.6250547,"address":"秋田県仙北市西木町西明寺潟尻117","review_count":28,"rating":4.2,"open_year":null,"nap_url":"https://www.nap-camp.com/akita/11509","gmaps_url":"https://www.google.com/maps/search/?api=1&query=39.7160144,140.6250547"},{"id":11544,"name":"ぽよよんの森オートキャンプ場","prefecture":"秋田","lat":39.13133031990129,"lng":140.71744394536898,"address":"秋田県雄勝郡東成瀬村椿川字間木11-9","review_count":10,"rating":4.1,"open_year":null,"nap_url":"https://www.nap-camp.com/akita/11544","gmaps_url":"https://www.google.com/maps/search/?api=1&query=39.13133031990129,140.71744394536898"},{"id":11540,"name":"法体園地キャンプ場","prefecture":"秋田","lat":39.1080021,"lng":140.155493,"address":"秋田県由利本荘市鳥海町百宅奥山3-1","review_count":2,"rating":4.1,"open_year":null,"nap_url":"https://www.nap-camp.com/akita/11540","gmaps_url":"https://www.google.com/maps/search/?api=1&query=39.1080021,140.155493"},{"id":11501,"name":"太平山リゾート公園","prefecture":"秋田","lat":39.7955136,"lng":140.2158219,"address":"秋田県秋田市仁別小水沢134","review_count":6,"rating":4.0,"open_year":null,"nap_url":"https://www.nap-camp.com/akita/11501","gmaps_url":"https://www.google.com/maps/search/?api=1&query=39.7955136,140.2158219"},{"id":11530,"name":"妖精の森キャンプ場","prefecture":"秋田","lat":40.00884472523633,"lng":140.508152564418,"address":"秋田県北秋田市森吉森吉高原","review_count":4,"rating":3.8,"open_year":null,"nap_url":"https://www.nap-camp.com/akita/11530","gmaps_url":"https://www.google.com/maps/search/?api=1&query=40.00884472523633,140.508152564418"},{"id":11488,"name":"仁賀保高原キャンプ場","prefecture":"秋田","lat":39.2269366,"lng":139.9978419,"address":"秋田県にかほ市伊勢居地太郎林1-15","review_count":2,"rating":3.8,"open_year":null,"nap_url":"https://www.nap-camp.com/akita/11488","gmaps_url":"https://www.google.com/maps/search/?api=1&query=39.2269366,139.9978419"},{"id":11532,"name":"岩城オートキャンプ場","prefecture":"秋田","lat":39.5406985,"lng":140.052947,"address":"秋田県由利本荘市岩城内道川新鶴潟192-43","review_count":3,"rating":3.7,"open_year":null,"nap_url":"https://www.nap-camp.com/akita/11532","gmaps_url":"https://www.google.com/maps/search/?api=1&query=39.5406985,140.052947"},{"id":11541,"name":"八塩いこいの森キャンプ場","prefecture":"秋田","lat":39.26329197690394,"lng":140.24307489395142,"address":"秋田県由利本荘市東由利田代沢中41-6","review_count":2,"rating":3.7,"open_year":null,"nap_url":"https://www.nap-camp.com/akita/11541","gmaps_url":"https://www.google.com/maps/search/?api=1&query=39.26329197690394,140.24307489395142"},{"id":11495,"name":"御所の台オートキャンプ場","prefecture":"秋田","lat":40.3880493,"lng":139.9881718,"address":"秋田県山本郡八峰町八森御所の台","review_count":2,"rating":3.4,"open_year":null,"nap_url":"https://www.nap-camp.com/akita/11495","gmaps_url":"https://www.google.com/maps/search/?api=1&query=40.3880493,139.9881718"},{"id":11489,"name":"中島台レクリエーションの森","prefecture":"秋田","lat":39.1758637,"lng":139.9742047,"address":"秋田県にかほ市象潟町横岡中島台","review_count":1,"rating":0.0,"open_year":null,"nap_url":"https://www.nap-camp.com/akita/11489","gmaps_url":"https://www.google.com/maps/search/?api=1&query=39.1758637,139.9742047"},{"id":11490,"name":"三崎公園キャンプ場","prefecture":"秋田","lat":39.1306628,"lng":139.8846143,"address":"秋田県にかほ市象潟町小砂川三崎クツカヶ1-2","review_count":1,"rating":0.0,"open_year":null,"nap_url":"https://www.nap-camp.com/akita/11490","gmaps_url":"https://www.google.com/maps/search/?api=1&query=39.1306628,139.8846143"},{"id":11491,"name":"象潟海水浴場キャンプ場","prefecture":"秋田","lat":39.201703,"lng":139.8951416,"address":"秋田県にかほ市象潟町入湖ノ澗","review_count":1,"rating":0.0,"open_year":null,"nap_url":"https://www.nap-camp.com/akita/11491","gmaps_url":"https://www.google.com/maps/search/?api=1&query=39.201703,139.8951416"},{"id":11493,"name":"石倉山キャンプ場","prefecture":"秋田","lat":40.1016089,"lng":140.0744359,"address":"秋田県山本郡三種町森岳上台102-1番地内","review_count":0,"rating":0.0,"open_year":null,"nap_url":"https://www.nap-camp.com/akita/11493","gmaps_url":"https://www.google.com/maps/search/?api=1&query=40.1016089,140.0744359"},{"id":11494,"name":"素波里キャンプ場","prefecture":"秋田","lat":40.3411269,"lng":140.249093,"address":"秋田県山本郡藤里町粕毛南鹿瀬内","review_count":1,"rating":0.0,"open_year":null,"nap_url":"https://www.nap-camp.com/akita/11494","gmaps_url":"https://www.google.com/maps/search/?api=1&query=40.3411269,140.249093"},{"id":11497,"name":"滝ノ沢野営場","prefecture":"秋田","lat":40.485611,"lng":140.831267,"address":"秋田県鹿角郡小坂町十和田湖滝ノ沢","review_count":0,"rating":0.0,"open_year":null,"nap_url":"https://www.nap-camp.com/akita/11497","gmaps_url":"https://www.google.com/maps/search/?api=1&query=40.4856110,140.831267"},{"id":11498,"name":"【H28/3閉鎖】八幡平オートキャンプパークアスピア","prefecture":"秋田","lat":40.0277474,"lng":140.823029,"address":"秋田県鹿角市八幡平切留平15-1","review_count":1,"rating":0.0,"open_year":null,"nap_url":"https://www.nap-camp.com/akita/11498","gmaps_url":"https://www.google.com/maps/search/?api=1&query=40.0277474,140.823029"},{"id":11500,"name":"ユフォーレキャンプ場","prefecture":"秋田","lat":39.7421737,"lng":140.3161,"address":"秋田県秋田市河辺三内丸舞1-1","review_count":1,"rating":0.0,"open_year":null,"nap_url":"https://www.nap-camp.com/akita/11500","gmaps_url":"https://www.google.com/maps/search/?api=1&query=39.7421737,140.316100"},{"id":11502,"name":"旭又野営場","prefecture":"秋田","lat":39.8006684,"lng":140.2117776,"address":"秋田県秋田市仁別務沢14林班","review_count":0,"rating":0.0,"open_year":null,"nap_url":"https://www.nap-camp.com/akita/11502","gmaps_url":"https://www.google.com/maps/search/?api=1&query=39.8006684,140.2117776"},{"id":11503,"name":"高尾山レクリエーション施設","prefecture":"秋田","lat":39.5530091,"lng":140.2073261,"address":"秋田県秋田市雄和女米木字高麗沢","review_count":0,"rating":0.0,"open_year":null,"nap_url":"https://www.nap-camp.com/akita/11503","gmaps_url":"https://www.google.com/maps/search/?api=1&query=39.5530091,140.2073261"},{"id":11504,"name":"竹の花公園","prefecture":"秋田","lat":39.530121,"lng":140.2286305,"address":"秋田県秋田市雄和新波花","review_count":0,"rating":0.0,"open_year":null,"nap_url":"https://www.nap-camp.com/akita/11504","gmaps_url":"https://www.google.com/maps/search/?api=1&query=39.530121,140.2286305"},{"id":11505,"name":"県立中央公園キャンプセンター","prefecture":"秋田","lat":39.621746,"lng":140.2296101,"address":"秋田県秋田市雄和椿川軽井沢55","review_count":0,"rating":0.0,"open_year":null,"nap_url":"https://www.nap-camp.com/akita/11505","gmaps_url":"https://www.google.com/maps/search/?api=1&query=39.621746,140.2296101"},{"id":11506,"name":"【R3/1現在閉鎖中】仙南カントリーパーク","prefecture":"秋田","lat":39.3790655,"lng":140.5932426,"address":"秋田県仙北郡美郷町金沢北沢54","review_count":0,"rating":0.0,"open_year":null,"nap_url":"https://www.nap-camp.com/akita/11506","gmaps_url":"https://www.google.com/maps/search/?api=1&query=39.3790655,140.5932426"},{"id":11508,"name":"六郷温泉あったか山","prefecture":"秋田","lat":39.4094708,"lng":140.612511,"address":"秋田県仙北郡美郷町六郷東根下馬転120","review_count":0,"rating":0.0,"open_year":null,"nap_url":"https://www.nap-camp.com/akita/11508","gmaps_url":"https://www.google.com/maps/search/?api=1&query=39.4094708,140.612511"},{"id":11513,"name":"大館市五色湖緑地公園キャンプ場","prefecture":"秋田","lat":40.3713755,"lng":140.468829,"address":"秋田県大館市岩瀬大川目元渡","review_count":0,"rating":0.0,"open_year":null,"nap_url":"https://www.nap-camp.com/akita/11513","gmaps_url":"https://www.google.com/maps/search/?api=1&query=40.3713755,140.468829"},{"id":11514,"name":"ユップラオートキャンプ場（旧:田代スポーツ公園オートピクニック広場）","prefecture":"秋田","lat":40.2924605,"lng":140.450088,"address":"秋田県大館市早口岩瀬越6-1","review_count":0,"rating":0.0,"open_year":null,"nap_url":"https://www.nap-camp.com/akita/11514","gmaps_url":"https://www.google.com/maps/search/?api=1&query=40.2924605,140.450088"},{"id":11515,"name":"【H29/7現在閉鎖中】まほろば唐松キャンプ場・わんぱくの森","prefecture":"秋田","lat":39.6170905,"lng":140.3215247,"address":"秋田県大仙市協和境岩淵","review_count":0,"rating":0.0,"open_year":null,"nap_url":"https://www.nap-camp.com/akita/11515","gmaps_url":"https://www.google.com/maps/search/?api=1&query=39.6170905,140.3215247"},{"id":11516,"name":"【R1/7現在閉鎖中】ナチュラルパークオートキャンプ場","prefecture":"秋田","lat":39.6397484,"lng":140.4173908,"address":"秋田県大仙市協和荒川字嗽沢２番地２","review_count":0,"rating":0.0,"open_year":null,"nap_url":"https://www.nap-camp.com/akita/11516","gmaps_url":"https://www.google.com/maps/search/?api=1&query=39.6397484,140.4173908"},{"id":11517,"name":"大台キャンプ場","prefecture":"秋田","lat":39.5187506,"lng":140.6551867,"address":"秋田県大仙市太田町川口大台1-2","review_count":0,"rating":0.0,"open_year":null,"nap_url":"https://www.nap-camp.com/akita/11517","gmaps_url":"https://www.google.com/maps/search/?api=1&query=39.5187506,140.6551867"},{"id":11518,"name":"大曲ファミリーキャンプ場","prefecture":"秋田","lat":39.4425248,"lng":140.4305731,"address":"秋田県大仙市大曲西根字仁応治65-2","review_count":0,"rating":0.0,"open_year":null,"nap_url":"https://www.nap-camp.com/akita/11518","gmaps_url":"https://www.google.com/maps/search/?api=1&query=39.4425248,140.4305731"},{"id":11520,"name":"宮沢海岸オートキャンプ場キャンパルわかみ","prefecture":"秋田","lat":40.0370787,"lng":139.9215182,"address":"秋田県男鹿市野石大場沢下1-78","review_count":1,"rating":0.0,"open_year":null,"nap_url":"https://www.nap-camp.com/akita/11520","gmaps_url":"https://www.google.com/maps/search/?api=1&query=40.0370787,139.9215182"},{"id":11521,"name":"【R1/7現在閉鎖中】木地山高原キャンプ場","prefecture":"秋田","lat":39.0777339,"lng":140.5884956,"address":"秋田県湯沢市皆瀬桁倉32","review_count":0,"rating":0.0,"open_year":null,"nap_url":"https://www.nap-camp.com/akita/11521","gmaps_url":"https://www.google.com/maps/search/?api=1&query=39.0777339,140.5884956"},{"id":11523,"name":"東山森林公園","prefecture":"秋田","lat":39.0636944,"lng":140.4523603,"address":"秋田県湯沢市小野大清水地内","review_count":0,"rating":0.0,"open_year":null,"nap_url":"https://www.nap-camp.com/akita/11523","gmaps_url":"https://www.google.com/maps/search/?api=1&query=39.0636944,140.4523603"},{"id":11524,"name":"南の池公園・キャンプ場","prefecture":"秋田","lat":40.0059615,"lng":139.95725,"address":"秋田県南秋田郡大潟村南2-17","review_count":1,"rating":0.0,"open_year":null,"nap_url":"https://www.nap-camp.com/akita/11524","gmaps_url":"https://www.google.com/maps/search/?api=1&query=40.0059615,139.95725"},{"id":11525,"name":"能代市毘沙門憩いの森","prefecture":"秋田","lat":40.27922691482519,"lng":140.1535400748253,"address":"秋田県能代市常盤毘沙門127-2","review_count":0,"rating":0.0,"open_year":null,"nap_url":"https://www.nap-camp.com/akita/11525","gmaps_url":"https://www.google.com/maps/search/?api=1&query=40.27922691482519,140.1535400748253"},{"id":11526,"name":"きみまち阪キャンプ場","prefecture":"秋田","lat":40.2174575,"lng":140.267789,"address":"秋田県能代市二ツ井町小繋","review_count":1,"rating":0.0,"open_year":null,"nap_url":"https://www.nap-camp.com/akita/11526","gmaps_url":"https://www.google.com/maps/search/?api=1&query=40.2174575,140.267789"},{"id":11527,"name":"萩形キャンプ場","prefecture":"秋田","lat":39.9078405,"lng":140.301808,"address":"秋田県北秋田郡上小阿仁村沖田面萩形2-1","review_count":0,"rating":0.0,"open_year":null,"nap_url":"https://www.nap-camp.com/akita/11527","gmaps_url":"https://www.google.com/maps/search/?api=1&query=39.9078405,140.301808"},{"id":11528,"name":"森吉山ブナ帯キャンプ場","prefecture":"秋田","lat":39.96013438623221,"lng":140.50847545266151,"address":"秋田県北秋田市阿仁鍵ノ滝","review_count":0,"rating":0.0,"open_year":null,"nap_url":"https://www.nap-camp.com/akita/11528","gmaps_url":"https://www.google.com/maps/search/?api=1&query=39.96013438623221,140.50847545266151"},{"id":11531,"name":"親子ふれあいオートキャンプ場","prefecture":"秋田","lat":40.0541562,"lng":140.580694,"address":"秋田県北秋田市森吉森吉山麓高原1","review_count":0,"rating":0.0,"open_year":null,"nap_url":"https://www.nap-camp.com/akita/11531","gmaps_url":"https://www.google.com/maps/search/?api=1&query=40.0541562,140.580694"},{"id":11533,"name":"大小屋ファミリーランド","prefecture":"秋田","lat":39.3885152,"lng":140.1899919,"address":"秋田県由利本荘市岩野目沢石森4-13","review_count":0,"rating":0.0,"open_year":null,"nap_url":"https://www.nap-camp.com/akita/11533","gmaps_url":"https://www.google.com/maps/search/?api=1&query=39.3885152,140.1899919"},{"id":11534,"name":"由利高原オートキャンプ場","prefecture":"秋田","lat":39.2426404,"lng":140.0617839,"address":"秋田県由利本荘市西沢南由利原437","review_count":0,"rating":0.0,"open_year":null,"nap_url":"https://www.nap-camp.com/akita/11534","gmaps_url":"https://www.google.com/maps/search/?api=1&query=39.2426404,140.0617839"},{"id":11535,"name":"望海の丘キャンプ場","prefecture":"秋田","lat":39.2897418,"lng":140.0095312,"address":"秋田県由利本荘市西目町出戸孫七山","review_count":0,"rating":0.0,"open_year":null,"nap_url":"https://www.nap-camp.com/akita/11535","gmaps_url":"https://www.google.com/maps/search/?api=1&query=39.2897418,140.0095312"},{"id":11536,"name":"本荘マリーナオートキャンプ場","prefecture":"秋田","lat":39.3919308,"lng":140.0176653,"address":"秋田県由利本荘市石脇田尻32-8","review_count":1,"rating":0.0,"open_year":null,"nap_url":"https://www.nap-camp.com/akita/11536","gmaps_url":"https://www.google.com/maps/search/?api=1&query=39.3919308,140.0176653"},{"id":11537,"name":"大清水園地キャンプ場","prefecture":"秋田","lat":39.3858766,"lng":140.0487906,"address":"秋田県由利本荘市千代沢国有林","review_count":0,"rating":0.0,"open_year":null,"nap_url":"https://www.nap-camp.com/akita/11537","gmaps_url":"https://www.google.com/maps/search/?api=1&query=39.3858766,140.0487906"},{"id":11538,"name":"三望苑","prefecture":"秋田","lat":39.4040811,"lng":140.0545816,"address":"秋田県由利本荘市大浦鳥屋地内","review_count":0,"rating":0.0,"open_year":null,"nap_url":"https://www.nap-camp.com/akita/11538","gmaps_url":"https://www.google.com/maps/search/?api=1&query=39.4040811,140.0545816"},{"id":11539,"name":"大平キャンプ場","prefecture":"秋田","lat":39.1073214,"lng":140.2913118,"address":"秋田県由利本荘市鳥海町上笹子大平35-5","review_count":0,"rating":0.0,"open_year":null,"nap_url":"https://www.nap-camp.com/akita/11539","gmaps_url":"https://www.google.com/maps/search/?api=1&query=39.1073214,140.2913118"},{"id":11542,"name":"花立牧場公園キャンプ場","prefecture":"秋田","lat":39.2155747,"lng":140.092126,"address":"秋田県由利本荘市矢島町城内花立","review_count":0,"rating":0.0,"open_year":null,"nap_url":"https://www.nap-camp.com/akita/11542","gmaps_url":"https://www.google.com/maps/search/?api=1&query=39.2155747,140.092126"},{"id":11543,"name":"祓川キャンプ場","prefecture":"秋田","lat":39.202357,"lng":140.117812,"address":"秋田県由利本荘市矢島鳥海山五合目祓川","review_count":0,"rating":0.0,"open_year":null,"nap_url":"https://www.nap-camp.com/akita/11543","gmaps_url":"https://www.google.com/maps/search/?api=1&query=39.2023570,140.117812"},{"id":11545,"name":"【H29/7現在閉鎖中】大柳沼自然公園キャンプ場","prefecture":"秋田","lat":39.1454616,"lng":140.7134937,"address":"秋田県雄勝郡東成瀬村椿川沼ノ上地内","review_count":0,"rating":0.0,"open_year":null,"nap_url":"https://www.nap-camp.com/akita/11545","gmaps_url":"https://www.google.com/maps/search/?api=1&query=39.1454616,140.7134937"},{"id":11546,"name":"須川湖キャンプ場","prefecture":"秋田","lat":39.1454616,"lng":140.7134937,"address":"秋田県雄勝郡東成瀬村椿川仁郷国有林内","review_count":1,"rating":0.0,"open_year":null,"nap_url":"https://www.nap-camp.com/akita/11546","gmaps_url":"https://www.google.com/maps/search/?api=1&query=39.1454616,140.7134937"},{"id":11158,"name":"サンビレッジ徳良湖オートキャンプ場","prefecture":"山形","lat":38.5938379246407,"lng":140.44042216347657,"address":"山形県尾花沢市二藤袋1401-6","review_count":143,"rating":4.5,"open_year":null,"nap_url":"https://www.nap-camp.com/yamagata/11158","gmaps_url":"https://www.google.com/maps/search/?api=1&query=38.5938379246407,140.44042216347657"},{"id":15900,"name":"ながいピオニーの森","prefecture":"山形","lat":38.1208343,"lng":139.9891651,"address":"山形県長井市寺泉4246-2","review_count":9,"rating":4.2,"open_year":null,"nap_url":"https://www.nap-camp.com/yamagata/15900","gmaps_url":"https://www.google.com/maps/search/?api=1&query=38.1208343,139.9891651"},{"id":16475,"name":"南陽DEたけはららキャンプジョー","prefecture":"山形","lat":38.069894217175026,"lng":140.09775252474518,"address":"山形県南陽市竹原2768","review_count":16,"rating":4.7,"open_year":null,"nap_url":"https://www.nap-camp.com/yamagata/16475","gmaps_url":"https://www.google.com/maps/search/?api=1&query=38.069894217175026,140.09775252474518"},{"id":11120,"name":"グリーンバレー神室　カムロキャンプサイト","prefecture":"山形","lat":38.9165396,"lng":140.3939551,"address":"山形県最上郡金山町大字有屋1400","review_count":15,"rating":4.6,"open_year":null,"nap_url":"https://www.nap-camp.com/yamagata/11120","gmaps_url":"https://www.google.com/maps/search/?api=1&query=38.9165396,140.3939551"},{"id":16418,"name":"五色温泉オートキャンプ場","prefecture":"山形","lat":37.7956091,"lng":140.2565645,"address":"山形県米沢市板谷498","review_count":36,"rating":4.7,"open_year":null,"nap_url":"https://www.nap-camp.com/yamagata/16418","gmaps_url":"https://www.google.com/maps/search/?api=1&query=37.7956091,140.2565645"},{"id":14124,"name":"森のプライベートビレッジ グランデイズ（旧：グランフォティア）","prefecture":"山形","lat":38.22675769175387,"lng":140.4259409153442,"address":"山形県山形市新山","review_count":9,"rating":4.6,"open_year":null,"nap_url":"https://www.nap-camp.com/yamagata/14124","gmaps_url":"https://www.google.com/maps/search/?api=1&query=38.22675769175387,140.4259409153442"},{"id":14453,"name":"yamagata glam","prefecture":"山形","lat":38.48579133613613,"lng":140.34468262460632,"address":"山形県村山市碁点999-19","review_count":7,"rating":4.5,"open_year":null,"nap_url":"https://www.nap-camp.com/yamagata/14453","gmaps_url":"https://www.google.com/maps/search/?api=1&query=38.48579133613613,140.34468262460632"},{"id":11129,"name":"庄内夕日の丘オートキャンプ場","prefecture":"山形","lat":38.8165776,"lng":139.7964138,"address":"山形県酒田市浜中粮畑33","review_count":7,"rating":4.5,"open_year":null,"nap_url":"https://www.nap-camp.com/yamagata/11129","gmaps_url":"https://www.google.com/maps/search/?api=1&query=38.8165776,139.7964138"},{"id":11144,"name":"羽黒山キャンプ場","prefecture":"山形","lat":38.6905081,"lng":139.9838797,"address":"山形県鶴岡市羽黒町手向羽黒山8","review_count":3,"rating":4.4,"open_year":null,"nap_url":"https://www.nap-camp.com/yamagata/11144","gmaps_url":"https://www.google.com/maps/search/?api=1&query=38.6905081,139.9838797"},{"id":11159,"name":"西浜コテージ村・キャンプ場","prefecture":"山形","lat":39.0687534,"lng":139.8742425,"address":"山形県飽海郡遊佐町吹浦字西浜2-62","review_count":12,"rating":4.4,"open_year":null,"nap_url":"https://www.nap-camp.com/yamagata/11159","gmaps_url":"https://www.google.com/maps/search/?api=1&query=39.0687534,139.8742425"},{"id":11132,"name":"月山・弓張平オートキャンプ場","prefecture":"山形","lat":38.47857,"lng":140.002575,"address":"山形県西村山郡西川町志津172-1月山・弓張平オートキャンプ場 センターハウス","review_count":46,"rating":4.2,"open_year":null,"nap_url":"https://www.nap-camp.com/yamagata/11132","gmaps_url":"https://www.google.com/maps/search/?api=1&query=38.478570,140.002575"},{"id":11125,"name":"古竜湖キャンプ場","prefecture":"山形","lat":38.1942168,"lng":140.3297048,"address":"山形県山形市蔵王山田羽竜813-1","review_count":3,"rating":4.2,"open_year":null,"nap_url":"https://www.nap-camp.com/yamagata/11125","gmaps_url":"https://www.google.com/maps/search/?api=1&query=38.1942168,140.3297048"},{"id":11149,"name":"月山あさひサンチュアパーク","prefecture":"山形","lat":38.57260007886848,"lng":139.9407444000244,"address":"山形県鶴岡市田麦俣字六十里山125-8","review_count":20,"rating":4.2,"open_year":null,"nap_url":"https://www.nap-camp.com/yamagata/11149","gmaps_url":"https://www.google.com/maps/search/?api=1&query=38.57260007886848,139.9407444000244"},{"id":11121,"name":"わくわくファーム前森高原","prefecture":"山形","lat":38.7978038,"lng":140.5525414,"address":"山形県最上郡最上町向町2135","review_count":28,"rating":4.0,"open_year":null,"nap_url":"https://www.nap-camp.com/yamagata/11121","gmaps_url":"https://www.google.com/maps/search/?api=1&query=38.7978038,140.5525414"},{"id":11140,"name":"白川ダム湖畔オートキャンプ場","prefecture":"山形","lat":37.9294625,"lng":139.9003766,"address":"山形県西置賜郡飯豊町数馬218-1","review_count":7,"rating":4.0,"open_year":null,"nap_url":"https://www.nap-camp.com/yamagata/11140","gmaps_url":"https://www.google.com/maps/search/?api=1&query=37.9294625,139.9003766"},{"id":11136,"name":"白い森オートキャンプ場","prefecture":"山形","lat":38.1614277,"lng":139.7861934,"address":"山形県西置賜郡小国町五味沢511-8","review_count":5,"rating":4.0,"open_year":null,"nap_url":"https://www.nap-camp.com/yamagata/11136","gmaps_url":"https://www.google.com/maps/search/?api=1&query=38.1614277,139.7861934"},{"id":11130,"name":"蔵王坊平国設野営場","prefecture":"山形","lat":38.1255097,"lng":140.4049607,"address":"山形県上山市蔵王坊平高原","review_count":10,"rating":3.8,"open_year":null,"nap_url":"https://www.nap-camp.com/yamagata/11130","gmaps_url":"https://www.google.com/maps/search/?api=1&query=38.1255097,140.4049607"},{"id":11128,"name":"鳥海高原家族旅行村","prefecture":"山形","lat":39.0342235,"lng":140.0354358,"address":"山形県酒田市草津湯ノ台149","review_count":2,"rating":3.8,"open_year":null,"nap_url":"https://www.nap-camp.com/yamagata/11128","gmaps_url":"https://www.google.com/maps/search/?api=1&query=39.0342235,140.0354358"},{"id":15002,"name":"【R5/11 閉鎖】おしごとマウンテン　ZAOキャンプ場","prefecture":"山形","lat":38.15372630000001,"lng":140.3512508153442,"address":"山形県上山市小倉１９６４番地１２６","review_count":7,"rating":3.6,"open_year":null,"nap_url":"https://www.nap-camp.com/yamagata/15002","gmaps_url":"https://www.google.com/maps/search/?api=1&query=38.15372630000001,140.3512508153442"},{"id":11118,"name":"いこいの森","prefecture":"山形","lat":38.3916249,"lng":140.224989,"address":"山形県寒河江市谷沢平野山1563","review_count":6,"rating":3.1,"open_year":null,"nap_url":"https://www.nap-camp.com/yamagata/11118","gmaps_url":"https://www.google.com/maps/search/?api=1&query=38.3916249,140.224989"},{"id":11146,"name":"鼠ヶ関そそそキャンプ場","prefecture":"山形","lat":38.55628154763332,"lng":139.54479291083678,"address":"山形県鶴岡市鼠ケ関乙","review_count":0,"rating":0.0,"open_year":null,"nap_url":"https://www.nap-camp.com/yamagata/11146","gmaps_url":"https://www.google.com/maps/search/?api=1&query=38.55628154763332,139.54479291083678"},{"id":11122,"name":"鮭川村エコパーク","prefecture":"山形","lat":38.7937138,"lng":140.2390512,"address":"山形県最上郡鮭川村大字川口４８９０","review_count":1,"rating":0.0,"open_year":null,"nap_url":"https://www.nap-camp.com/yamagata/11122","gmaps_url":"https://www.google.com/maps/search/?api=1&query=38.7937138,140.2390512"},{"id":11138,"name":"パレス松風ふるさと森林公園","prefecture":"山形","lat":38.1948971,"lng":140.1109401,"address":"山形県西置賜郡白鷹町十王5687-8","review_count":1,"rating":0.0,"open_year":null,"nap_url":"https://www.nap-camp.com/yamagata/11138","gmaps_url":"https://www.google.com/maps/search/?api=1&query=38.1948971,140.1109401"},{"id":14887,"name":"sotonicoグランピング山形","prefecture":"山形","lat":38.29700791796738,"lng":140.3680805245369,"address":"山形県山形市風間922","review_count":0,"rating":0.0,"open_year":null,"nap_url":"https://www.nap-camp.com/yamagata/14887","gmaps_url":"https://www.google.com/maps/search/?api=1&query=38.29700791796738,140.3680805245369"},{"id":10028,"name":"【H27/12現在閉鎖中】月山六合目キャンプ場","prefecture":"山形","lat":38.597537,"lng":139.998926,"address":"山形県鶴岡市羽黒町月山六合目平清水","review_count":0,"rating":0.0,"open_year":null,"nap_url":"https://www.nap-camp.com/yamagata/10028","gmaps_url":"https://www.google.com/maps/search/?api=1&query=38.597537,139.998926"},{"id":11119,"name":"【H27/12現在閉鎖中】葉山キャンプ場","prefecture":"山形","lat":38.409495,"lng":140.2302768,"address":"山形県寒河江市白岩5061-2","review_count":0,"rating":0.0,"open_year":null,"nap_url":"https://www.nap-camp.com/yamagata/11119","gmaps_url":"https://www.google.com/maps/search/?api=1&query=38.409495,140.2302768"},{"id":11123,"name":"舟形若あゆ温泉「あゆっこ村」キャンプ場","prefecture":"山形","lat":38.7096815,"lng":140.3409571,"address":"山形県最上郡舟形町長沢8067","review_count":0,"rating":0.0,"open_year":null,"nap_url":"https://www.nap-camp.com/yamagata/11123","gmaps_url":"https://www.google.com/maps/search/?api=1&query=38.7096815,140.3409571"},{"id":11124,"name":"西蔵王公園キャンプ場","prefecture":"山形","lat":38.2554388,"lng":140.3396017,"address":"山形県山形市岩波上桜田地内","review_count":1,"rating":0.0,"open_year":null,"nap_url":"https://www.nap-camp.com/yamagata/11124","gmaps_url":"https://www.google.com/maps/search/?api=1&query=38.2554388,140.3396017"},{"id":11126,"name":"外山キャンプ場","prefecture":"山形","lat":38.9144331,"lng":139.8365153,"address":"山形県酒田市外山越29-1","review_count":1,"rating":0.0,"open_year":null,"nap_url":"https://www.nap-camp.com/yamagata/11126","gmaps_url":"https://www.google.com/maps/search/?api=1&query=38.9144331,139.8365153"},{"id":11127,"name":"八森キャンプ場","prefecture":"山形","lat":38.9612306,"lng":139.943851,"address":"山形県酒田市市条八森921","review_count":0,"rating":0.0,"open_year":null,"nap_url":"https://www.nap-camp.com/yamagata/11127","gmaps_url":"https://www.google.com/maps/search/?api=1&query=38.9612306,139.943851"},{"id":11131,"name":"山形県志津野営場","prefecture":"山形","lat":38.4944993,"lng":139.97024,"address":"山形県西村山郡西川町志津","review_count":1,"rating":0.0,"open_year":null,"nap_url":"https://www.nap-camp.com/yamagata/11131","gmaps_url":"https://www.google.com/maps/search/?api=1&query=38.4944993,139.970240"},{"id":11133,"name":"大沼キャンプ場","prefecture":"山形","lat":38.4204169,"lng":140.105821,"address":"山形県西村山郡西川町沼山","review_count":0,"rating":0.0,"open_year":null,"nap_url":"https://www.nap-camp.com/yamagata/11133","gmaps_url":"https://www.google.com/maps/search/?api=1&query=38.4204169,140.105821"},{"id":11134,"name":"大山自然公園キャンプ場","prefecture":"山形","lat":38.355690886728325,"lng":140.18141627311707,"address":"山形県西村山郡大江町小見大山820","review_count":0,"rating":0.0,"open_year":null,"nap_url":"https://www.nap-camp.com/yamagata/11134","gmaps_url":"https://www.google.com/maps/search/?api=1&query=38.355690886728325,140.18141627311707"},{"id":11135,"name":"Asahi 自然観","prefecture":"山形","lat":38.3046715,"lng":140.0583236,"address":"山形県西村山郡朝日町白倉745-1","review_count":1,"rating":0.0,"open_year":null,"nap_url":"https://www.nap-camp.com/yamagata/11135","gmaps_url":"https://www.google.com/maps/search/?api=1&query=38.3046715,140.0583236"},{"id":11137,"name":"健康の森横根","prefecture":"山形","lat":38.0503115,"lng":139.7283604,"address":"山形県西置賜郡小国町小国小坂町759-3","review_count":0,"rating":0.0,"open_year":null,"nap_url":"https://www.nap-camp.com/yamagata/11137","gmaps_url":"https://www.google.com/maps/search/?api=1&query=38.0503115,139.7283604"},{"id":11139,"name":"岳谷親水公園キャンプ場","prefecture":"山形","lat":38.0458265,"lng":139.9875295,"address":"山形県西置賜郡飯豊町岳谷","review_count":0,"rating":0.0,"open_year":null,"nap_url":"https://www.nap-camp.com/yamagata/11139","gmaps_url":"https://www.google.com/maps/search/?api=1&query=38.0458265,139.9875295"},