[
  {
    "name": "森の秘密基地キャンプ場",
    "prefecture": "山梨",
    "lat": 35.52,
    "lng": 138.75,
    "reviews": 3,
    "rating": 4.7,
    "open": 2025,
    "map": "https://maps.google.com/?q=35.52,138.75",
    "description": "富士山麓の静かな森の中にある隠れ家的キャンプ場。"
  },
  {
    "name": "湖畔ベースキャンプ",
    "prefecture": "長野",
    "lat": 36.05,
    "lng": 138.12,
    "reviews": 8,
    "rating": 4.5,
    "open": 2024,
    "map": "https://maps.google.com/?q=36.05,138.12",
    "description": "諏訪湖近くの静かな湖畔サイト。"
  },
  {
    "name": "奥入瀬渓流キャンプベース",
    "prefecture": "青森",
    "lat": 40.56,
    "lng": 140.88,
    "reviews": 5,
    "rating": 4.8,
    "open": 2024,
    "map": "https://maps.google.com/?q=40.56,140.88",
    "description": "奥入瀬渓流沿いの絶景キャンプ場。"
  },
  {
    "name": "八甲田山麓フォレストキャンプ",
    "prefecture": "青森",
    "lat": 40.65,
    "lng": 140.88,
    "reviews": 2,
    "rating": 4.6,
    "open": 2025,
    "map": "https://maps.google.com/?q=40.65,140.88",
    "description": "八甲田山の麓に広がる広大な森のキャンプ場。"
  },
  {
    "name": "北上川源流キャンプ場",
    "prefecture": "岩手",
    "lat": 39.70,
    "lng": 141.14,
    "reviews": 4,
    "rating": 4.5,
    "open": 2024,
    "map": "https://maps.google.com/?q=39.70,141.14",
    "description": "北上川の源流域に位置する自然豊かなキャンプ場。"
  },
  {
    "name": "早池峰山麓オートキャンプ",
    "prefecture": "岩手",
    "lat": 39.57,
    "lng": 141.30,
    "reviews": 7,
    "rating": 4.4,
    "open": 2023,
    "map": "https://maps.google.com/?q=39.57,141.30",
    "description": "早池峰山を望む高原のキャンプ場。"
  },
  {
    "name": "蔵王エコキャンプ場",
    "prefecture": "宮城",
    "lat": 38.14,
    "lng": 140.45,
    "reviews": 6,
    "rating": 4.3,
    "open": 2024,
    "map": "https://maps.google.com/?q=38.14,140.45",
    "description": "蔵王連峰の自然に囲まれたエコキャンプ場。"
  },
  {
    "name": "七ヶ浜シーサイドキャンプ",
    "prefecture": "宮城",
    "lat": 38.30,
    "lng": 141.06,
    "reviews": 9,
    "rating": 4.2,
    "open": 2023,
    "map": "https://maps.google.com/?q=38.30,141.06",
    "description": "太平洋を望む海岸沿いのキャンプ場。"
  },
  {
    "name": "田沢湖高原ベースキャンプ",
    "prefecture": "秋田",
    "lat": 39.72,
    "lng": 140.73,
    "reviews": 3,
    "rating": 4.7,
    "open": 2025,
    "map": "https://maps.google.com/?q=39.72,140.73",
    "description": "日本一深い田沢湖を望む高原のキャンプ場。"
  },
  {
    "name": "白神山地ワイルドキャンプ",
    "prefecture": "秋田",
    "lat": 40.28,
    "lng": 140.10,
    "reviews": 1,
    "rating": 4.9,
    "open": 2025,
    "map": "https://maps.google.com/?q=40.28,140.10",
    "description": "世界遺産・白神山地の麓に広がる原始的なキャンプ場。"
  },
  {
    "name": "月山高原キャンプフィールド",
    "prefecture": "山形",
    "lat": 38.55,
    "lng": 140.03,
    "reviews": 5,
    "rating": 4.6,
    "open": 2024,
    "map": "https://maps.google.com/?q=38.55,140.03",
    "description": "月山を望む高原に広がる開放的なキャンプ場。"
  },
  {
    "name": "最上川渓谷キャンプ",
    "prefecture": "山形",
    "lat": 38.75,
    "lng": 140.18,
    "reviews": 4,
    "rating": 4.4,
    "open": 2024,
    "map": "https://maps.google.com/?q=38.75,140.18",
    "description": "最上川の渓谷沿いに位置する自然豊かなキャンプ場。"
  },
  {
    "name": "裏磐梯フォレストキャンプ",
    "prefecture": "福島",
    "lat": 37.68,
    "lng": 140.05,
    "reviews": 7,
    "rating": 4.5,
    "open": 2023,
    "map": "https://maps.google.com/?q=37.68,140.05",
    "description": "裏磐梯の湖沼群に囲まれた森のキャンプ場。"
  },
  {
    "name": "只見川源流キャンプベース",
    "prefecture": "福島",
    "lat": 37.35,
    "lng": 139.30,
    "reviews": 2,
    "rating": 4.8,
    "open": 2025,
    "map": "https://maps.google.com/?q=37.35,139.30",
    "description": "只見川の源流域に広がる秘境キャンプ場。"
  },
  {
    "name": "袋田の滝ベースキャンプ",
    "prefecture": "茨城",
    "lat": 36.77,
    "lng": 140.42,
    "reviews": 6,
    "rating": 4.3,
    "open": 2024,
    "map": "https://maps.google.com/?q=36.77,140.42",
    "description": "日本三名瀑・袋田の滝近くのキャンプ場。"
  },
  {
    "name": "霞ヶ浦湖畔キャンプフィールド",
    "prefecture": "茨城",
    "lat": 36.05,
    "lng": 140.38,
    "reviews": 8,
    "rating": 4.1,
    "open": 2023,
    "map": "https://maps.google.com/?q=36.05,140.38",
    "description": "霞ヶ浦の湖畔に広がる広大なキャンプ場。"
  },
  {
    "name": "那須高原ウッドキャンプ",
    "prefecture": "栃木",
    "lat": 37.12,
    "lng": 140.00,
    "reviews": 5,
    "rating": 4.6,
    "open": 2024,
    "map": "https://maps.google.com/?q=37.12,140.00",
    "description": "那須高原の広大な森に広がるキャンプ場。"
  },
  {
    "name": "日光戦場ヶ原キャンプ",
    "prefecture": "栃木",
    "lat": 36.78,
    "lng": 139.48,
    "reviews": 9,
    "rating": 4.4,
    "open": 2023,
    "map": "https://maps.google.com/?q=36.78,139.48",
    "description": "日光国立公園内の高原キャンプ場。"
  },
  {
    "name": "尾瀬沼ベースキャンプ",
    "prefecture": "群馬",
    "lat": 36.93,
    "lng": 139.28,
    "reviews": 4,
    "rating": 4.7,
    "open": 2024,
    "map": "https://maps.google.com/?q=36.93,139.28",
    "description": "尾瀬国立公園の玄関口に位置するキャンプ場。"
  },
  {
    "name": "榛名湖高原キャンプフィールド",
    "prefecture": "群馬",
    "lat": 36.48,
    "lng": 138.87,
    "reviews": 6,
    "rating": 4.3,
    "open": 2024,
    "map": "https://maps.google.com/?q=36.48,138.87",
    "description": "榛名湖を見下ろす高原のキャンプ場。"
  },
  {
    "name": "秩父渓谷フォレストキャンプ",
    "prefecture": "埼玉",
    "lat": 35.98,
    "lng": 139.07,
    "reviews": 7,
    "rating": 4.2,
    "open": 2023,
    "map": "https://maps.google.com/?q=35.98,139.07",
    "description": "秩父の渓谷沿いに広がる自然豊かなキャンプ場。"
  },
  {
    "name": "奥武蔵グリーンキャンプ",
    "prefecture": "埼玉",
    "lat": 35.90,
    "lng": 139.22,
    "reviews": 3,
    "rating": 4.5,
    "open": 2025,
    "map": "https://maps.google.com/?q=35.90,139.22",
    "description": "奥武蔵の緑豊かな山中に広がるキャンプ場。"
  },
  {
    "name": "養老渓谷キャンプベース",
    "prefecture": "千葉",
    "lat": 35.27,
    "lng": 140.18,
    "reviews": 5,
    "rating": 4.4,
    "open": 2024,
    "map": "https://maps.google.com/?q=35.27,140.18",
    "description": "養老渓谷の自然に囲まれた静かなキャンプ場。"
  },
  {
    "name": "九十九里ビーチキャンプ",
    "prefecture": "千葉",
    "lat": 35.55,
    "lng": 140.52,
    "reviews": 8,
    "rating": 4.1,
    "open": 2023,
    "map": "https://maps.google.com/?q=35.55,140.52",
    "description": "九十九里浜に面した海岸キャンプ場。"
  },
  {
    "name": "奥多摩渓谷ウッドキャンプ",
    "prefecture": "東京",
    "lat": 35.80,
    "lng": 139.10,
    "reviews": 6,
    "rating": 4.3,
    "open": 2024,
    "map": "https://maps.google.com/?q=35.80,139.10",
    "description": "奥多摩の渓谷沿いに位置するキャンプ場。"
  },
  {
    "name": "檜原村フォレストキャンプ",
    "prefecture": "東京",
    "lat": 35.73,
    "lng": 139.00,
    "reviews": 4,
    "rating": 4.6,
    "open": 2024,
    "map": "https://maps.google.com/?q=35.73,139.00",
    "description": "東京唯一の村・檜原村の森の中のキャンプ場。"
  },
  {
    "name": "丹沢山麓キャンプフィールド",
    "prefecture": "神奈川",
    "lat": 35.48,
    "lng": 139.18,
    "reviews": 7,
    "rating": 4.2,
    "open": 2023,
    "map": "https://maps.google.com/?q=35.48,139.18",
    "description": "丹沢山地の麓に広がる自然豊かなキャンプ場。"
  },
  {
    "name": "相模湖湖畔キャンプ",
    "prefecture": "神奈川",
    "lat": 35.62,
    "lng": 139.17,
    "reviews": 9,
    "rating": 4.0,
    "open": 2023,
    "map": "https://maps.google.com/?q=35.62,139.17",
    "description": "相模湖を望む湖畔のキャンプ場。"
  },
  {
    "name": "富士五湖ベースキャンプ",
    "prefecture": "山梨",
    "lat": 35.48,
    "lng": 138.62,
    "reviews": 10,
    "rating": 4.5,
    "open": 2023,
    "map": "https://maps.google.com/?q=35.48,138.62",
    "description": "富士五湖エリアの絶景キャンプ場。"
  },
  {
    "name": "南アルプス高原キャンプ",
    "prefecture": "山梨",
    "lat": 35.65,
    "lng": 138.23,
    "reviews": 2,
    "rating": 4.9,
    "open": 2025,
    "map": "https://maps.google.com/?q=35.65,138.23",
    "description": "南アルプスを望む標高1500mの高原キャンプ場。"
  },
  {
    "name": "上高地アルペンキャンプ",
    "prefecture": "長野",
    "lat": 36.24,
    "lng": 137.63,
    "reviews": 8,
    "rating": 4.7,
    "open": 2023,
    "map": "https://maps.google.com/?q=36.24,137.63",
    "description": "上高地の大自然に囲まれた高山キャンプ場。"
  },
  {
    "name": "八ヶ岳山麓ウッドキャンプ",
    "prefecture": "長野",
    "lat": 35.95,
    "lng": 138.37,
    "reviews": 5,
    "rating": 4.6,
    "open": 2024,
    "map": "https://maps.google.com/?q=35.95,138.37",
    "description": "八ヶ岳の麓に広がる森のキャンプ場。"
  },
  {
    "name": "妙高高原フォレストキャンプ",
    "prefecture": "新潟",
    "lat": 36.90,
    "lng": 138.12,
    "reviews": 4,
    "rating": 4.5,
    "open": 2024,
    "map": "https://maps.google.com/?q=36.90,138.12",
    "description": "妙高高原の広大な森に広がるキャンプ場。"
  },
  {
    "name": "佐渡島シーサイドキャンプ",
    "prefecture": "新潟",
    "lat": 38.02,
    "lng": 138.37,
    "reviews": 3,
    "rating": 4.7,
    "open": 2025,
    "map": "https://maps.google.com/?q=38.02,138.37",
    "description": "佐渡島の美しい海岸に面したキャンプ場。"
  },
  {
    "name": "朝霧高原キャンプフィールド",
    "prefecture": "静岡",
    "lat": 35.38,
    "lng": 138.57,
    "reviews": 9,
    "rating": 4.4,
    "open": 2023,
    "map": "https://maps.google.com/?q=35.38,138.57",
    "description": "富士山を望む朝霧高原のキャンプ場。"
  },
  {
    "name": "伊豆半島ビーチキャンプ",
    "prefecture": "静岡",
    "lat": 34.90,
    "lng": 138.85,
    "reviews": 6,
    "rating": 4.3,
    "open": 2024,
    "map": "https://maps.google.com/?q=34.90,138.85",
    "description": "伊豆半島の美しい海岸に面したキャンプ場。"
  },
  {
    "name": "設楽高原キャンプベース",
    "prefecture": "愛知",
    "lat": 35.10,
    "lng": 137.60,
    "reviews": 4,
    "rating": 4.4,
    "open": 2024,
    "map": "https://maps.google.com/?q=35.10,137.60",
    "description": "設楽高原の自然に囲まれた静かなキャンプ場。"
  },
  {
    "name": "茶臼山高原オートキャンプ",
    "prefecture": "愛知",
    "lat": 35.06,
    "lng": 137.54,
    "reviews": 7,
    "rating": 4.2,
    "open": 2023,
    "map": "https://maps.google.com/?q=35.06,137.54",
    "description": "愛知県最高峰・茶臼山の高原キャンプ場。"
  },
  {
    "name": "十和田湖畔キャンプ場",
    "prefecture": "青森",
    "lat": 40.47,
    "lng": 140.88,
    "reviews": 6,
    "rating": 4.5,
    "open": 2023,
    "map": "https://maps.google.com/?q=40.47,140.88",
    "description": "十和田湖の湖畔に位置する絶景キャンプ場。"
  },
  {
    "name": "岩手山麓フォレストキャンプ",
    "prefecture": "岩手",
    "lat": 39.85,
    "lng": 141.00,
    "reviews": 3,
    "rating": 4.6,
    "open": 2025,
    "map": "https://maps.google.com/?q=39.85,141.00",
    "description": "岩手山を望む広大な森のキャンプ場。"
  },
  {
    "name": "松島湾岸キャンプフィールド",
    "prefecture": "宮城",
    "lat": 38.37,
    "lng": 141.07,
    "reviews": 5,
    "rating": 4.4,
    "open": 2024,
    "map": "https://maps.google.com/?q=38.37,141.07",
    "description": "日本三景・松島を望む湾岸キャンプ場。"
  },
  {
    "name": "男鹿半島シーサイドキャンプ",
    "prefecture": "秋田",
    "lat": 39.93,
    "lng": 139.83,
    "reviews": 2,
    "rating": 4.7,
    "open": 2025,
    "map": "https://maps.google.com/?q=39.93,139.83",
    "description": "男鹿半島の断崖絶壁を望む海岸キャンプ場。"
  },
  {
    "name": "出羽三山高原キャンプ",
    "prefecture": "山形",
    "lat": 38.72,
    "lng": 139.98,
    "reviews": 4,
    "rating": 4.5,
    "open": 2024,
    "map": "https://maps.google.com/?q=38.72,139.98",
    "description": "出羽三山の霊山に囲まれた高原キャンプ場。"
  },
  {
    "name": "猪苗代湖畔キャンプベース",
    "prefecture": "福島",
    "lat": 37.55,
    "lng": 140.10,
    "reviews": 8,
    "rating": 4.3,
    "open": 2023,
    "map": "https://maps.google.com/?q=37.55,140.10",
    "description": "猪苗代湖の湖畔に広がる開放的なキャンプ場。"
  },
  {
    "name": "筑波山麓ウッドキャンプ",
    "prefecture": "茨城",
    "lat": 36.22,
    "lng": 140.10,
    "reviews": 5,
    "rating": 4.2,
    "open": 2024,
    "map": "https://maps.google.com/?q=36.22,140.10",
    "description": "筑波山の麓に広がる森のキャンプ場。"
  },
  {
    "name": "日光霧降高原キャンプ",
    "prefecture": "栃木",
    "lat": 36.78,
    "lng": 139.62,
    "reviews": 6,
    "rating": 4.4,
    "open": 2024,
    "map": "https://maps.google.com/?q=36.78,139.62",
    "description": "霧降高原の広大な草原に広がるキャンプ場。"
  },
  {
    "name": "赤城山高原フォレストキャンプ",
    "prefecture": "群馬",
    "lat": 36.55,
    "lng": 139.18,
    "reviews": 4,
    "rating": 4.5,
    "open": 2024,
    "map": "https://maps.google.com/?q=36.55,139.18",
    "description": "赤城山の高原に広がる森のキャンプ場。"
  },
  {
    "name": "三峯神社山麓キャンプ",
    "prefecture": "埼玉",
    "lat": 35.98,
    "lng": 138.95,
    "reviews": 3,
    "rating": 4.6,
    "open": 2025,
    "map": "https://maps.google.com/?q=35.98,138.95",
    "description": "三峯神社近くの山麓に広がるキャンプ場。"
  },
  {
    "name": "鴨川シーワールドビーチキャンプ",
    "prefecture": "千葉",
    "lat": 35.12,
    "lng": 140.10,
    "reviews": 7,
    "rating": 4.1,
    "open": 2023,
    "map": "https://maps.google.com/?q=35.12,140.10",
    "description": "太平洋を望む鴨川の海岸キャンプ場。"
  },
  {
    "name": "富士山北麓ベースキャンプ",
    "prefecture": "山梨",
    "lat": 35.42,
    "lng": 138.72,
    "reviews": 1,
    "rating": 4.9,
    "open": 2025,
    "map": "https://maps.google.com/?q=35.42,138.72",
    "description": "富士山の北麓に広がる絶景キャンプ場。"
  },
  {
    "name": "戸隠高原キャンプフィールド",
    "prefecture": "長野",
    "lat": 36.78,
    "lng": 138.02,
    "reviews": 5,
    "rating": 4.5,
    "open": 2024,
    "map": "https://maps.google.com/?q=36.78,138.02",
    "description": "戸隠神社近くの高原に広がるキャンプ場。"
  },
  {
    "name": "越後湯沢高原キャンプ",
    "prefecture": "新潟",
    "lat": 36.93,
    "lng": 138.82,
    "reviews": 4,
    "rating": 4.4,
    "open": 2024,
    "map": "https://maps.google.com/?q=36.93,138.82",
    "description": "越後湯沢の高原に広がるキャンプ場。"
  }
]
